[
  {
    "Number": "K32015",
    "Name": "1200 Beacon St",
    "Latitude": 42.34414899,
    "Longitude": -71.11467361,
    "District": "Brookline",
    "Public": "Yes",
    "Total docks": 15,
    "Deployment Year": 2021
  },
  {
    "Number": "W32006",
    "Name": "160 Arsenal",
    "Latitude": 42.36466403,
    "Longitude": -71.17569387,
    "District": "Watertown",
    "Public": "Yes",
    "Total docks": 11,
    "Deployment Year": 2021
  },
  {
    "Number": "A32019",
    "Name": "175 N Harvard St",
    "Latitude": 42.36447457,
    "Longitude": -71.12840831,
    "District": "Boston",
    "Public": "Yes",
    "Total docks": 17,
    "Deployment Year": 2014
  },
  {
    "Number": "S32035",
    "Name": "191 Beacon St",
    "Latitude": 42.38032335,
    "Longitude": -71.10878613,
    "District": "Somerville",
    "Public": "Yes",
    "Total docks": 19,
    "Deployment Year": 2018
  },
  {
    "Number": "C32094",
    "Name": "2 Hummingbird Lane at Olmsted Green",
    "Latitude": 42.28887,
    "Longitude": -71.095003,
    "District": "Boston",
    "Public": "Yes",
    "Total docks": 17,
    "Deployment Year": 2020
  },
  {
    "Number": "S32023",
    "Name": "30 Dane St",
    "Latitude": 42.38100143,
    "Longitude": -71.10402523,
    "District": "Somerville",
    "Public": "Yes",
    "Total docks": 15,
    "Deployment Year": 2018
  },
  {
    "Number": "M32026",
    "Name": "359 Broadway - Broadway at Fayette Street",
    "Latitude": 42.370803,
    "Longitude": -71.104412,
    "District": "Cambridge",
    "Public": "Yes",
    "Total docks": 23,
    "Deployment Year": 2013
  },
  {
    "Number": "C32106",
    "Name": "555 Metropolitan Ave",
    "Latitude": 42.2681,
    "Longitude": -71.11924,
    "District": "Boston",
    "Public": "Yes",
    "Total docks": 18,
    "Deployment Year": 2021
  },
  {
    "Number": "C32105",
    "Name": "606 American Legion Hwy at Canterbury St",
    "Latitude": 42.28578,
    "Longitude": -71.109725,
    "District": "Boston",
    "Public": "Yes",
    "Total docks": 18,
    "Deployment Year": 2021
  },
  {
    "Number": "C32091",
    "Name": "645 Summer St",
    "Latitude": 42.34178089,
    "Longitude": -71.03987017,
    "District": "Boston",
    "Public": "Yes",
    "Total docks": 19,
    "Deployment Year": 2020
  },
  {
    "Number": "M32054",
    "Name": "699 Mt Auburn St",
    "Latitude": 42.37500235,
    "Longitude": -71.14871614,
    "District": "Cambridge",
    "Public": "Yes",
    "Total docks": 23,
    "Deployment Year": 2018
  },
  {
    "Number": "V32001",
    "Name": "7 Acre Park",
    "Latitude": 42.41143223,
    "Longitude": -71.06823265,
    "District": "Everett",
    "Public": "Yes",
    "Total docks": 15,
    "Deployment Year": 2019
  },
  {
    "Number": "B32060",
    "Name": "700 Commonwealth Ave.",
    "Latitude": 42.34960945,
    "Longitude": -71.10391524,
    "District": "Boston",
    "Public": "Yes",
    "Total docks": 16,
    "Deployment Year": 2019
  },
  {
    "Number": "M32060",
    "Name": "700 Huron Ave",
    "Latitude": 42.38078817,
    "Longitude": -71.15412891,
    "District": "Cambridge",
    "Public": "Yes",
    "Total docks": 19,
    "Deployment Year": 2018
  },
  {
    "Number": "M32064",
    "Name": "75 Binney St",
    "Latitude": 42.36550729,
    "Longitude": -71.0801376,
    "District": "Cambridge",
    "Public": "Yes",
    "Total docks": 19,
    "Deployment Year": 2019
  },
  {
    "Number": "M32058",
    "Name": "84 Cambridgepark Dr",
    "Latitude": 42.3936,
    "Longitude": -71.143941,
    "District": "Cambridge",
    "Public": "Yes",
    "Total docks": 27,
    "Deployment Year": 2018
  },
  {
    "Number": "H32006",
    "Name": "855 Broadway",
    "Latitude": 42.39841773,
    "Longitude": -71.02390923,
    "District": "Chelsea",
    "Public": "Yes",
    "Total docks": 11,
    "Deployment Year": 2021
  },
  {
    "Number": "M32084",
    "Name": "87-101 Cambridgepark Drive",
    "Latitude": 42.39522187,
    "Longitude": -71.14421904,
    "District": "Cambridge",
    "Public": "Yes",
    "Total docks": 23,
    "Deployment Year": 2023
  },
  {
    "Number": "M32073",
    "Name": "955 Mass Ave",
    "Latitude": 42.36895181,
    "Longitude": -71.1099878,
    "District": "Cambridge",
    "Public": "Yes",
    "Total docks": 19,
    "Deployment Year": 2021
  },
  {
    "Number": "C32098",
    "Name": "Adams Branch Library",
    "Latitude": 42.286011,
    "Longitude": -71.054689,
    "District": "Boston",
    "Public": "Yes",
    "Total docks": 0,
    "Deployment Year": 2021
  },
  {
    "Number": "C32065",
    "Name": "Adams St at Lonsdale St",
    "Latitude": 42.29167943,
    "Longitude": -71.05726346,
    "District": "Boston",
    "Public": "Yes",
    "Total docks": 15,
    "Deployment Year": 2019
  },
  {
    "Number": "A32054",
    "Name": "Addison St at Saratoga St",
    "Latitude": 42.38518147,
    "Longitude": -71.0151367,
    "District": "Boston",
    "Public": "Yes",
    "Total docks": 19,
    "Deployment Year": 2022
  },
  {
    "Number": "A32032",
    "Name": "Airport T Stop - Bremen St at Brooks St",
    "Latitude": 42.37535377,
    "Longitude": -71.03131771,
    "District": "Boston",
    "Public": "Yes",
    "Total docks": 15,
    "Deployment Year": 2016
  },
  {
    "Number": "C32061",
    "Name": "Albany St at E. Brookline St",
    "Latitude": 42.33664795,
    "Longitude": -71.0689446,
    "District": "Boston",
    "Public": "Yes",
    "Total docks": 15,
    "Deployment Year": 2019
  },
  {
    "Number": "M32046",
    "Name": "Alewife MBTA at Steel Place",
    "Latitude": 42.39558846,
    "Longitude": -71.14260614,
    "District": "Cambridge",
    "Public": "Yes",
    "Total docks": 19,
    "Deployment Year": 2016
  },
  {
    "Number": "M32033",
    "Name": "Alewife Station at Russell Field",
    "Latitude": 42.396105,
    "Longitude": -71.139459,
    "District": "Cambridge",
    "Public": "Yes",
    "Total docks": 23,
    "Deployment Year": 2014
  },
  {
    "Number": "C32079",
    "Name": "American Legion Hwy at Cummins Hwy",
    "Latitude": 42.27881158,
    "Longitude": -71.11687703,
    "District": "Boston",
    "Public": "Yes",
    "Total docks": 15,
    "Deployment Year": 2019
  },
  {
    "Number": "C32101",
    "Name": "American Legion Hwy at Hyde Park Ave",
    "Latitude": 42.27265394,
    "Longitude": -71.11990392,
    "District": "Boston",
    "Public": "Yes",
    "Total docks": 19,
    "Deployment Year": 2021
  },
  {
    "Number": "M32059",
    "Name": "Ames St at Broadway",
    "Latitude": 42.3636929,
    "Longitude": -71.0875672,
    "District": "Cambridge",
    "Public": "Yes",
    "Total docks": 17,
    "Deployment Year": 2018
  },
  {
    "Number": "M32037",
    "Name": "Ames St at Main St",
    "Latitude": 42.3625,
    "Longitude": -71.08822,
    "District": "Cambridge",
    "Public": "Yes",
    "Total docks": 19,
    "Deployment Year": 2012
  },
  {
    "Number": "C32012",
    "Name": "Andrew T Stop - Dorchester Ave at Dexter St",
    "Latitude": 42.33073333,
    "Longitude": -71.05699851,
    "District": "Boston",
    "Public": "Yes",
    "Total docks": 15,
    "Deployment Year": 2013
  },
  {
    "Number": "B32004",
    "Name": "Aquarium T Stop - 200 Atlantic Ave",
    "Latitude": 42.35991176,
    "Longitude": -71.05142981,
    "District": "Boston",
    "Public": "Yes",
    "Total docks": 23,
    "Deployment Year": 2011
  },
  {
    "Number": "D32004",
    "Name": "Arch St at Franklin St",
    "Latitude": 42.35533502,
    "Longitude": -71.05822917,
    "District": "Boston",
    "Public": "Yes",
    "Total docks": 31,
    "Deployment Year": 2011
  },
  {
    "Number": "C32048",
    "Name": "Archdale Rd at Washington St",
    "Latitude": 42.29266593,
    "Longitude": -71.12119539,
    "District": "Boston",
    "Public": "Yes",
    "Total docks": 15,
    "Deployment Year": 2018
  },
  {
    "Number": "W32004",
    "Name": "Arsenal Yards",
    "Latitude": 42.36277389,
    "Longitude": -71.15764854,
    "District": "Watertown",
    "Public": "Yes",
    "Total docks": 15,
    "Deployment Year": 2020
  },
  {
    "Number": "C32062",
    "Name": "Ashmont T Stop",
    "Latitude": 42.2856944,
    "Longitude": -71.0641389,
    "District": "Boston",
    "Public": "Yes",
    "Total docks": 14,
    "Deployment Year": 2019
  },
  {
    "Number": "S32018",
    "Name": "Assembly Square T",
    "Latitude": 42.39223284,
    "Longitude": -71.07746601,
    "District": "Somerville",
    "Public": "Yes",
    "Total docks": 15,
    "Deployment Year": 2018
  },
  {
    "Number": "N32015",
    "Name": "Auburndale",
    "Latitude": 42.34805541,
    "Longitude": -71.24775946,
    "District": "Newton",
    "Public": "Yes",
    "Total docks": 15,
    "Deployment Year": 2021
  },
  {
    "Number": "A32003",
    "Name": "B.U. Central - 725 Comm. Ave.",
    "Latitude": 42.350406,
    "Longitude": -71.108279,
    "District": "Boston",
    "Public": "Yes",
    "Total docks": 11,
    "Deployment Year": 2011
  },
  {
    "Number": "C32003",
    "Name": "Back Bay T Stop - Dartmouth St at Stuart St",
    "Latitude": 42.34807412,
    "Longitude": -71.07657015,
    "District": "Boston",
    "Public": "Yes",
    "Total docks": 17,
    "Deployment Year": 2011
  },
  {
    "Number": "N32003",
    "Name": "Bacon St at Washington St",
    "Latitude": 42.35711921,
    "Longitude": -71.18604537,
    "District": "Newton",
    "Public": "Yes",
    "Total docks": 11,
    "Deployment Year": 2020
  },
  {
    "Number": "S32007",
    "Name": "Ball Sq",
    "Latitude": 42.39936816,
    "Longitude": -71.11111522,
    "District": "Somerville",
    "Public": "Yes",
    "Total docks": 19,
    "Deployment Year": 2012
  },
  {
    "Number": "B32055",
    "Name": "Bartlett St at John Elliot Sq",
    "Latitude": 42.3294633,
    "Longitude": -71.0901582,
    "District": "Boston",
    "Public": "Yes",
    "Total docks": 15,
    "Deployment Year": 2018
  },
  {
    "Number": "N32012",
    "Name": "Beacon at Walnut",
    "Latitude": 42.33006232,
    "Longitude": -71.20668411,
    "District": "Newton",
    "Public": "Yes",
    "Total docks": 15,
    "Deployment Year": 2021
  },
  {
    "Number": "D32024",
    "Name": "Beacon St at Charles St",
    "Latitude": 42.356052,
    "Longitude": -71.069849,
    "District": "Boston",
    "Public": "Yes",
    "Total docks": 19,
    "Deployment Year": 2013
  },
  {
    "Number": "B32016",
    "Name": "Beacon St at Massachusetts Ave",
    "Latitude": 42.35082681,
    "Longitude": -71.08981088,
    "District": "Boston",
    "Public": "Yes",
    "Total docks": 19,
    "Deployment Year": 2011
  },
  {
    "Number": "K32002",
    "Name": "Beacon St at Tappan St",
    "Latitude": 42.3382668,
    "Longitude": -71.13894682,
    "District": "Brookline",
    "Public": "Yes",
    "Total docks": 15,
    "Deployment Year": 2012
  },
  {
    "Number": "S32003",
    "Name": "Beacon St at Washington / Kirkland",
    "Latitude": 42.37875351,
    "Longitude": -71.10707223,
    "District": "Somerville",
    "Public": "Yes",
    "Total docks": 19,
    "Deployment Year": 2012
  },
  {
    "Number": "C32059",
    "Name": "Belgrade Ave at Walworth St",
    "Latitude": 42.28634589,
    "Longitude": -71.1367213,
    "District": "Boston",
    "Public": "Yes",
    "Total docks": 14,
    "Deployment Year": 2018
  },
  {
    "Number": "C32095",
    "Name": "Bellevue T Stop",
    "Latitude": 42.28611421,
    "Longitude": -71.14636928,
    "District": "Boston",
    "Public": "Yes",
    "Total docks": 19,
    "Deployment Year": 2021
  },
  {
    "Number": "H32002",
    "Name": "Bellingham Square",
    "Latitude": 42.39319611,
    "Longitude": -71.0334456,
    "District": "Chelsea",
    "Public": "Yes",
    "Total docks": 11,
    "Deployment Year": 2021
  },
  {
    "Number": "A32028",
    "Name": "Bennington St at Byron St",
    "Latitude": 42.38353252,
    "Longitude": -71.01619095,
    "District": "Boston",
    "Public": "Yes",
    "Total docks": 15,
    "Deployment Year": 2016
  },
  {
    "Number": "A32039",
    "Name": "Bennington St at Constitution Beach",
    "Latitude": 42.38522394,
    "Longitude": -71.01063069,
    "District": "Boston",
    "Public": "Yes",
    "Total docks": 17,
    "Deployment Year": 2016
  },
  {
    "Number": "M32067",
    "Name": "Berkshire Street at Cambridge Street",
    "Latitude": 42.37207658,
    "Longitude": -71.08995434,
    "District": "Cambridge",
    "Public": "Yes",
    "Total docks": 19,
    "Deployment Year": 2019
  },
  {
    "Number": "M32027",
    "Name": "Binney St / Sixth St",
    "Latitude": 42.36608797,
    "Longitude": -71.08633604,
    "District": "Cambridge",
    "Public": "Yes",
    "Total docks": 19,
    "Deployment Year": 2013
  },
  {
    "Number": "D32050",
    "Name": "Blossom St at Charles St",
    "Latitude": 42.36435589,
    "Longitude": -71.06959369,
    "District": "Boston",
    "Public": "Yes",
    "Total docks": 15,
    "Deployment Year": 2019
  },
  {
    "Number": "C32044",
    "Name": "Blue Hill Ave at Almont St",
    "Latitude": 42.27462067,
    "Longitude": -71.09372552,
    "District": "Boston",
    "Public": "Yes",
    "Total docks": 19,
    "Deployment Year": 2018
  },
  {
    "Number": "C32092",
    "Name": "Blue Hill Ave at Havelock St",
    "Latitude": 42.286012,
    "Longitude": -71.090986,
    "District": "Boston",
    "Public": "Yes",
    "Total docks": 18,
    "Deployment Year": 2020
  },
  {
    "Number": "B32057",
    "Name": "Blue Hill Ave at Southwood St",
    "Latitude": 42.31786021,
    "Longitude": -71.07798629,
    "District": "Boston",
    "Public": "Yes",
    "Total docks": 14,
    "Deployment Year": 2018
  },
  {
    "Number": "B32008",
    "Name": "Boston City Hall - 28 State St",
    "Latitude": 42.35892,
    "Longitude": -71.057629,
    "District": "Boston",
    "Public": "Yes",
    "Total docks": 25,
    "Deployment Year": 2011
  },
  {
    "Number": "N32009",
    "Name": "Boston College T",
    "Latitude": 42.33987892,
    "Longitude": -71.16708934,
    "District": "Newton",
    "Public": "Yes",
    "Total docks": 17,
    "Deployment Year": 2021
  },
  {
    "Number": "D32018",
    "Name": "Boston Convention and Exhibition Center - Summer St at West Side Dr",
    "Latitude": 42.34776345,
    "Longitude": -71.04535997,
    "District": "Boston",
    "Public": "Yes",
    "Total docks": 23,
    "Deployment Year": 2012
  },
  {
    "Number": "A32036",
    "Name": "Boston East - 126 Border St",
    "Latitude": 42.37331213,
    "Longitude": -71.04102008,
    "District": "Boston",
    "Public": "Yes",
    "Total docks": 15,
    "Deployment Year": 2016
  },
  {
    "Number": "A32045",
    "Name": "Boston Landing",
    "Latitude": 42.35656092,
    "Longitude": -71.14167538,
    "District": "Boston",
    "Public": "Yes",
    "Total docks": 16,
    "Deployment Year": 2019
  },
  {
    "Number": "C32002",
    "Name": "Boston Medical Center - E Concord St at Harrison Ave",
    "Latitude": 42.33639915,
    "Longitude": -71.07306711,
    "District": "Boston",
    "Public": "Yes",
    "Total docks": 19,
    "Deployment Year": 2019
  },
  {
    "Number": "B32031",
    "Name": "Bowdoin St at Quincy St",
    "Latitude": 42.30785224,
    "Longitude": -71.06512249,
    "District": "Boston",
    "Public": "Yes",
    "Total docks": 15,
    "Deployment Year": 2016
  },
  {
    "Number": "D32007",
    "Name": "Boylston St at Arlington St",
    "Latitude": 42.35206005,
    "Longitude": -71.07046366,
    "District": "Boston",
    "Public": "Yes",
    "Total docks": 31,
    "Deployment Year": 2011
  },
  {
    "Number": "D32013",
    "Name": "Boylston St at Berkeley St",
    "Latitude": 42.35114198,
    "Longitude": -71.07329249,
    "District": "Boston",
    "Public": "Yes",
    "Total docks": 15,
    "Deployment Year": 2011
  },
  {
    "Number": "D32055",
    "Name": "Boylston St at Dartmouth St",
    "Latitude": 42.3501932,
    "Longitude": -71.07744187,
    "District": "Boston",
    "Public": "Yes",
    "Total docks": 19,
    "Deployment Year": 2013
  },
  {
    "Number": "D32046",
    "Name": "Boylston St at Exeter St",
    "Latitude": 42.34958942,
    "Longitude": -71.07946779,
    "District": "Boston",
    "Public": "Yes",
    "Total docks": 19,
    "Deployment Year": 2018
  },
  {
    "Number": "C32008",
    "Name": "Boylston St at Fairfield St",
    "Latitude": 42.34880382,
    "Longitude": -71.08236909,
    "District": "Boston",
    "Public": "Yes",
    "Total docks": 19,
    "Deployment Year": 2011
  },
  {
    "Number": "B32034",
    "Name": "Boylston St at Jersey St",
    "Latitude": 42.34465063,
    "Longitude": -71.09732501,
    "District": "Boston",
    "Public": "Yes",
    "Total docks": 14,
    "Deployment Year": 2018
  },
  {
    "Number": "B32018",
    "Name": "Boylston St at Massachusetts Ave",
    "Latitude": 42.34740621,
    "Longitude": -71.08678415,
    "District": "Boston",
    "Public": "Yes",
    "Total docks": 15,
    "Deployment Year": 2011
  },
  {
    "Number": "S32050",
    "Name": "Boynton Yards at 101 South Street",
    "Latitude": 42.3754476,
    "Longitude": -71.09117389,
    "District": "Somerville",
    "Public": "Yes",
    "Total docks": 19,
    "Deployment Year": 2023
  },
  {
    "Number": "A32055",
    "Name": "Bremen St at Marion St",
    "Latitude": 42.37410622,
    "Longitude": -71.03276253,
    "District": "Boston",
    "Public": "Yes",
    "Total docks": 11,
    "Deployment Year": 2023
  },
  {
    "Number": "T32016",
    "Name": "Bridge Street Neck",
    "Latitude": 42.52810052,
    "Longitude": -70.88971138,
    "District": "Salem",
    "Public": "Yes",
    "Total docks": 11,
    "Deployment Year": 2023
  },
  {
    "Number": "B32013",
    "Name": "Brigham Circle - Francis St at Huntington Ave",
    "Latitude": 42.33462893,
    "Longitude": -71.10407918,
    "District": "Boston",
    "Public": "Yes",
    "Total docks": 15,
    "Deployment Year": 2011
  },
  {
    "Number": "D32058",
    "Name": "Brighton Ave at Linden St",
    "Latitude": 42.3528376,
    "Longitude": -71.1296752,
    "District": "Boston",
    "Public": "Yes",
    "Total docks": 19,
    "Deployment Year": 2022
  },
  {
    "Number": "D32028",
    "Name": "Brighton Center - Washington St at Cambridge St",
    "Latitude": 42.34894857,
    "Longitude": -71.15027189,
    "District": "Boston",
    "Public": "Yes",
    "Total docks": 16,
    "Deployment Year": 2015
  },
  {
    "Number": "A32005",
    "Name": "Brighton Mills - 370 Western Ave",
    "Latitude": 42.36154571,
    "Longitude": -71.13776207,
    "District": "Boston",
    "Public": "Yes",
    "Total docks": 15,
    "Deployment Year": 2011
  },
  {
    "Number": "M32082",
    "Name": "Broad Canal Way at Third Street",
    "Latitude": 42.3630455,
    "Longitude": -71.08287079,
    "District": "Cambridge",
    "Public": "Yes",
    "Total docks": 19,
    "Deployment Year": 2022
  },
  {
    "Number": "A32047",
    "Name": "Broad St at Central St",
    "Latitude": 42.35849449,
    "Longitude": -71.0542647,
    "District": "Boston",
    "Public": "Yes",
    "Total docks": 15,
    "Deployment Year": 2020
  },
  {
    "Number": "V32011",
    "Name": "Broadway at Beacham St",
    "Latitude": 42.3983606,
    "Longitude": -71.06373843,
    "District": "Everett",
    "Public": "Yes",
    "Total docks": 15,
    "Deployment Year": 2019
  },
  {
    "Number": "S32016",
    "Name": "Broadway at Central St",
    "Latitude": 42.3951715,
    "Longitude": -71.09850592,
    "District": "Somerville",
    "Public": "Yes",
    "Total docks": 19,
    "Deployment Year": 2018
  },
  {
    "Number": "H32004",
    "Name": "Broadway at Gerrish Ave",
    "Latitude": 42.39453079,
    "Longitude": -71.03085594,
    "District": "Chelsea",
    "Public": "Yes",
    "Total docks": 11,
    "Deployment Year": 2021
  },
  {
    "Number": "L32004",
    "Name": "Broadway at Grafton St",
    "Latitude": 42.40994213,
    "Longitude": -71.1400932,
    "District": "Arlington",
    "Public": "Yes",
    "Total docks": 11,
    "Deployment Year": 2020
  },
  {
    "Number": "V32004",
    "Name": "Broadway at Lynde St",
    "Latitude": 42.39648358,
    "Longitude": -71.0654676,
    "District": "Everett",
    "Public": "Yes",
    "Total docks": 15,
    "Deployment Year": 2019
  },
  {
    "Number": "V32008",
    "Name": "Broadway at Maple St",
    "Latitude": 42.41034691,
    "Longitude": -71.05260458,
    "District": "Everett",
    "Public": "Yes",
    "Total docks": 12,
    "Deployment Year": 2019
  },
  {
    "Number": "S32014",
    "Name": "Broadway St at Mt Pleasant St",
    "Latitude": 42.38614141,
    "Longitude": -71.0782814,
    "District": "Somerville",
    "Public": "Yes",
    "Total docks": 19,
    "Deployment Year": 2016
  },
  {
    "Number": "C32053",
    "Name": "Broadway T Stop",
    "Latitude": 42.34304858,
    "Longitude": -71.0580343,
    "District": "Boston",
    "Public": "Yes",
    "Total docks": 19,
    "Deployment Year": 2018
  },
  {
    "Number": "K32005",
    "Name": "Brookline Town Hall",
    "Latitude": 42.33376473,
    "Longitude": -71.12046447,
    "District": "Brookline",
    "Public": "Yes",
    "Total docks": 15,
    "Deployment Year": 2016
  },
  {
    "Number": "K32003",
    "Name": "Brookline Village - Station Street at MBTA",
    "Latitude": 42.33274392,
    "Longitude": -71.11626681,
    "District": "Brookline",
    "Public": "Yes",
    "Total docks": 16,
    "Deployment Year": 2012
  },
  {
    "Number": "A32023",
    "Name": "Bunker Hill Community College",
    "Latitude": 42.37408991,
    "Longitude": -71.06905997,
    "District": "Boston",
    "Public": "Yes",
    "Total docks": 23,
    "Deployment Year": 2015
  },
  {
    "Number": "B32020",
    "Name": "Burlington Ave at Brookline Ave",
    "Latitude": 42.345733,
    "Longitude": -71.100694,
    "District": "Boston",
    "Public": "Yes",
    "Total docks": 15,
    "Deployment Year": 2013
  },
  {
    "Number": "N32011",
    "Name": "California at Chapel",
    "Latitude": 42.36514871,
    "Longitude": -71.20236039,
    "District": "Newton",
    "Public": "Yes",
    "Total docks": 12,
    "Deployment Year": 2021
  },
  {
    "Number": "M32077",
    "Name": "Cambridge Crossing at North First Street",
    "Latitude": 42.371141,
    "Longitude": -71.076198,
    "District": "Cambridge",
    "Public": "Yes",
    "Total docks": 23,
    "Deployment Year": 2021
  },
  {
    "Number": "M32052",
    "Name": "Cambridge Dept. of Public Works -147 Hampshire St.",
    "Latitude": 42.37119728,
    "Longitude": -71.09759867,
    "District": "Cambridge",
    "Public": "Yes",
    "Total docks": 19,
    "Deployment Year": 2017
  },
  {
    "Number": "M32013",
    "Name": "Cambridge Main Library at Broadway / Trowbridge St",
    "Latitude": 42.373379,
    "Longitude": -71.111075,
    "District": "Cambridge",
    "Public": "Yes",
    "Total docks": 19,
    "Deployment Year": 2012
  },
  {
    "Number": "M32007",
    "Name": "Cambridge St - at Columbia St / Webster Ave",
    "Latitude": 42.372969,
    "Longitude": -71.094445,
    "District": "Cambridge",
    "Public": "Yes",
    "Total docks": 15,
    "Deployment Year": 2012
  },
  {
    "Number": "D32000",
    "Name": "Cambridge St at Joy St",
    "Latitude": 42.36125722,
    "Longitude": -71.06528744,
    "District": "Boston",
    "Public": "Yes",
    "Total docks": 15,
    "Deployment Year": 2011
  },
  {
    "Number": "M32019",
    "Name": "CambridgeSide Galleria - CambridgeSide PL at Land Blvd",
    "Latitude": 42.36707407,
    "Longitude": -71.07679278,
    "District": "Cambridge",
    "Public": "Yes",
    "Total docks": 15,
    "Deployment Year": 2012
  },
  {
    "Number": "A32046",
    "Name": "Canal St at Causeway St",
    "Latitude": 42.36530095,
    "Longitude": -71.06092191,
    "District": "Boston",
    "Public": "Yes",
    "Total docks": 23,
    "Deployment Year": 2011
  },
  {
    "Number": "H32001",
    "Name": "Cary Square",
    "Latitude": 42.39813565,
    "Longitude": -71.03070972,
    "District": "Chelsea",
    "Public": "Yes",
    "Total docks": 12,
    "Deployment Year": 2021
  },
  {
    "Number": "C32088",
    "Name": "Central Ave at River St",
    "Latitude": 42.27094707,
    "Longitude": -71.07337901,
    "District": "Boston",
    "Public": "Yes",
    "Total docks": 15,
    "Deployment Year": 2019
  },
  {
    "Number": "M32012",
    "Name": "Central Sq Post Office / Cambridge City Hall at Mass Ave / Pleasant St",
    "Latitude": 42.366426,
    "Longitude": -71.105495,
    "District": "Cambridge",
    "Public": "Yes",
    "Total docks": 17,
    "Deployment Year": 2012
  },
  {
    "Number": "M32011",
    "Name": "Central Square at Mass Ave / Essex St",
    "Latitude": 42.36507,
    "Longitude": -71.1031,
    "District": "Cambridge",
    "Public": "Yes",
    "Total docks": 19,
    "Deployment Year": 2012
  },
  {
    "Number": "A32041",
    "Name": "Central Square East Boston",
    "Latitude": 42.37544913,
    "Longitude": -71.03918549,
    "District": "Boston",
    "Public": "Yes",
    "Total docks": 14,
    "Deployment Year": 2019
  },
  {
    "Number": "N32018",
    "Name": "Centre St at Commonwealth Ave",
    "Latitude": 42.3362358,
    "Longitude": -71.1934421,
    "District": "Newton",
    "Public": "Yes",
    "Total docks": 11,
    "Deployment Year": 2022
  },
  {
    "Number": "C32086",
    "Name": "Centre St at Parkway YMCA",
    "Latitude": 42.28277901,
    "Longitude": -71.15728851,
    "District": "Boston",
    "Public": "Yes",
    "Total docks": 18,
    "Deployment Year": 2019
  },
  {
    "Number": "E32008",
    "Name": "Centre St at Seaverns Ave",
    "Latitude": 42.3121203,
    "Longitude": -71.1142981,
    "District": "Boston",
    "Public": "Yes",
    "Total docks": 15,
    "Deployment Year": 2018
  },
  {
    "Number": "C32085",
    "Name": "Centre St at W. Roxbury Post Office",
    "Latitude": 42.28633199,
    "Longitude": -71.15344755,
    "District": "Boston",
    "Public": "Yes",
    "Total docks": 19,
    "Deployment Year": 2019
  },
  {
    "Number": "N32000",
    "Name": "Centre St at Washington St",
    "Latitude": 42.35574335,
    "Longitude": -71.18641943,
    "District": "Newton",
    "Public": "Yes",
    "Total docks": 11,
    "Deployment Year": 2020
  },
  {
    "Number": "D32016",
    "Name": "Charles Circle - Charles St at Cambridge St",
    "Latitude": 42.36079297,
    "Longitude": -71.07118962,
    "District": "Boston",
    "Public": "Yes",
    "Total docks": 19,
    "Deployment Year": 2011
  },
  {
    "Number": "D32039",
    "Name": "Charlestown Navy Yard",
    "Latitude": 42.37412455,
    "Longitude": -71.054812,
    "District": "Boston",
    "Public": "Yes",
    "Total docks": 23,
    "Deployment Year": 2018
  },
  {
    "Number": "H32003",
    "Name": "Chelsea Square",
    "Latitude": 42.39022671,
    "Longitude": -71.03857018,
    "District": "Chelsea",
    "Public": "Yes",
    "Total docks": 11,
    "Deployment Year": 2021
  },
  {
    "Number": "V32009",
    "Name": "Chelsea St at Vine St",
    "Latitude": 42.4203487,
    "Longitude": -71.04419768,
    "District": "Everett",
    "Public": "Yes",
    "Total docks": 15,
    "Deployment Year": 2019
  },
  {
    "Number": "H32005",
    "Name": "Chelsea Station",
    "Latitude": 42.39636528,
    "Longitude": -71.03987179,
    "District": "Chelsea",
    "Public": "Yes",
    "Total docks": 11,
    "Deployment Year": 2021
  },
  {
    "Number": "M32049",
    "Name": "Child Street at Brian P. Murphy Staircase",
    "Latitude": 42.37197678,
    "Longitude": -71.07200496,
    "District": "Cambridge",
    "Public": "Yes",
    "Total docks": 23,
    "Deployment Year": 2016
  },
  {
    "Number": "D32015",
    "Name": "Chinatown Gate Plaza",
    "Latitude": 42.351356,
    "Longitude": -71.059367,
    "District": "Boston",
    "Public": "Yes",
    "Total docks": 19,
    "Deployment Year": 2011
  },
  {
    "Number": "D32019",
    "Name": "Chinatown T Stop",
    "Latitude": 42.352409,
    "Longitude": -71.062679,
    "District": "Boston",
    "Public": "Yes",
    "Total docks": 19,
    "Deployment Year": 2012
  },
  {
    "Number": "B32005",
    "Name": "Christian Science Plaza - Massachusetts Ave at Westland Ave",
    "Latitude": 42.34366582,
    "Longitude": -71.08582377,
    "District": "Boston",
    "Public": "Yes",
    "Total docks": 19,
    "Deployment Year": 2011
  },
  {
    "Number": "M32087",
    "Name": "Church St",
    "Latitude": 42.37433925,
    "Longitude": -71.11966431,
    "District": "Cambridge",
    "Public": "Yes",
    "Total docks": 15,
    "Deployment Year": ""
  },
  {
    "Number": "C32099",
    "Name": "Circuit Drive at American Legion Hwy",
    "Latitude": 42.29704126,
    "Longitude": -71.09171927,
    "District": "Boston",
    "Public": "Yes",
    "Total docks": 19,
    "Deployment Year": 2021
  },
  {
    "Number": "S32010",
    "Name": "Clarendon Hill at Broadway",
    "Latitude": 42.406302,
    "Longitude": -71.132446,
    "District": "Somerville",
    "Public": "Yes",
    "Total docks": 15,
    "Deployment Year": 2013
  },
  {
    "Number": "D32047",
    "Name": "Clarendon St at Newbury St",
    "Latitude": 42.35159662,
    "Longitude": -71.07561663,
    "District": "Boston",
    "Public": "Yes",
    "Total docks": 19,
    "Deployment Year": 2019
  },
  {
    "Number": "C32104",
    "Name": "Cleary Sq",
    "Latitude": 42.2556,
    "Longitude": -71.12444,
    "District": "Boston",
    "Public": "Yes",
    "Total docks": 16,
    "Deployment Year": 2021
  },
  {
    "Number": "B32035",
    "Name": "Cleveland Circle",
    "Latitude": 42.33554308,
    "Longitude": -71.1506152,
    "District": "Boston",
    "Public": "Yes",
    "Total docks": 15,
    "Deployment Year": 2018
  },
  {
    "Number": "D32057",
    "Name": "Clinton St at North St",
    "Latitude": 42.36070284,
    "Longitude": -71.05524927,
    "District": "Boston",
    "Public": "Yes",
    "Total docks": 18,
    "Deployment Year": 2021
  },
  {
    "Number": "C32055",
    "Name": "Codman Square Library",
    "Latitude": 42.2873611,
    "Longitude": -71.071111,
    "District": "Boston",
    "Public": "Yes",
    "Total docks": 17,
    "Deployment Year": 2018
  },
  {
    "Number": "B32006",
    "Name": "Colleges of the Fenway - Fenway at Avenue Louis Pasteur",
    "Latitude": 42.34011512,
    "Longitude": -71.10061884,
    "District": "Boston",
    "Public": "Yes",
    "Total docks": 14,
    "Deployment Year": 2011
  },
  {
    "Number": "B32029",
    "Name": "Columbia Rd at Ceylon St",
    "Latitude": 42.309572,
    "Longitude": -71.0729,
    "District": "Boston",
    "Public": "Yes",
    "Total docks": 15,
    "Deployment Year": 2016
  },
  {
    "Number": "C32052",
    "Name": "Columbia Rd at Tierney Community Center",
    "Latitude": 42.33023071,
    "Longitude": -71.05060093,
    "District": "Boston",
    "Public": "Yes",
    "Total docks": 19,
    "Deployment Year": 2018
  },
  {
    "Number": "C32077",
    "Name": "Columbus Ave at W. Canton St",
    "Latitude": 42.34474225,
    "Longitude": -71.07648162,
    "District": "Boston",
    "Public": "Yes",
    "Total docks": 19,
    "Deployment Year": 2019
  },
  {
    "Number": "A32002",
    "Name": "Commonwealth Ave at Agganis Way",
    "Latitude": 42.35169202,
    "Longitude": -71.11903489,
    "District": "Boston",
    "Public": "Yes",
    "Total docks": 15,
    "Deployment Year": 2011
  },
  {
    "Number": "K32006",
    "Name": "Commonwealth Ave At Babcock St",
    "Latitude": 42.35154735,
    "Longitude": -71.12126246,
    "District": "Brookline",
    "Public": "Yes",
    "Total docks": 15,
    "Deployment Year": 2017
  },
  {
    "Number": "D32033",
    "Name": "Commonwealth Ave at Chiswick Rd",
    "Latitude": 42.34024645,
    "Longitude": -71.15168806,
    "District": "Boston",
    "Public": "Yes",
    "Total docks": 19,
    "Deployment Year": 2018
  },
  {
    "Number": "A32017",
    "Name": "Commonwealth Ave at Griggs St",
    "Latitude": 42.34922469,
    "Longitude": -71.13275303,
    "District": "Boston",
    "Public": "Yes",
    "Total docks": 15,
    "Deployment Year": 2012
  },
  {
    "Number": "D32034",
    "Name": "Commonwealth Ave at Kelton St",
    "Latitude": 42.34835863,
    "Longitude": -71.13997217,
    "District": "Boston",
    "Public": "Yes",
    "Total docks": 15,
    "Deployment Year": 2018
  },
  {
    "Number": "T32013",
    "Name": "Community Life Center",
    "Latitude": 42.520136,
    "Longitude": -70.906271,
    "District": "Salem",
    "Public": "Yes",
    "Total docks": 9,
    "Deployment Year": 2022
  },
  {
    "Number": "S32022",
    "Name": "Community Path at Cedar Street",
    "Latitude": 42.39407224,
    "Longitude": -71.11133695,
    "District": "Somerville",
    "Public": "Yes",
    "Total docks": 15,
    "Deployment Year": 2018
  },
  {
    "Number": "S32040",
    "Name": "Community Path at Lowell St",
    "Latitude": 42.392525,
    "Longitude": -71.105587,
    "District": "Somerville",
    "Public": "Yes",
    "Total docks": 19,
    "Deployment Year": 2020
  },
  {
    "Number": "M32074",
    "Name": "Concord Ave at Spinelli Place",
    "Latitude": 42.390719,
    "Longitude": -71.1538877,
    "District": "Cambridge",
    "Public": "Yes",
    "Total docks": 19,
    "Deployment Year": 2021
  },
  {
    "Number": "D32009",
    "Name": "Congress St at Boston City Hall",
    "Latitude": 42.36041775,
    "Longitude": -71.05752244,
    "District": "Boston",
    "Public": "Yes",
    "Total docks": 23,
    "Deployment Year": 2011
  },
  {
    "Number": "C32032",
    "Name": "Congress St at Northern Ave",
    "Latitude": 42.3481,
    "Longitude": -71.03764,
    "District": "Boston",
    "Public": "Yes",
    "Total docks": 13,
    "Deployment Year": 2016
  },
  {
    "Number": "C32010",
    "Name": "Congress St at Sleeper St",
    "Latitude": 42.3510045,
    "Longitude": -71.04930013,
    "District": "Boston",
    "Public": "Yes",
    "Total docks": 19,
    "Deployment Year": 2011
  },
  {
    "Number": "S32004",
    "Name": "Conway Park - Somerville Avenue",
    "Latitude": 42.38363895,
    "Longitude": -71.10853672,
    "District": "Somerville",
    "Public": "Yes",
    "Total docks": 23,
    "Deployment Year": 2012
  },
  {
    "Number": "K32001",
    "Name": "Coolidge Corner - Beacon St at Centre St",
    "Latitude": 42.341598,
    "Longitude": -71.123338,
    "District": "Brookline",
    "Public": "Yes",
    "Total docks": 19,
    "Deployment Year": 2012
  },
  {
    "Number": "W32001",
    "Name": "Coolidge Sq.",
    "Latitude": 42.37207611,
    "Longitude": -71.15683131,
    "District": "Watertown",
    "Public": "Yes",
    "Total docks": 12,
    "Deployment Year": 2020
  },
  {
    "Number": "D32005",
    "Name": "Copley Square - Dartmouth St at Boylston St",
    "Latitude": 42.34992828,
    "Longitude": -71.07739207,
    "District": "Boston",
    "Public": "Yes",
    "Total docks": 29,
    "Deployment Year": 2011
  },
  {
    "Number": "S32037",
    "Name": "Craigie at Summer St",
    "Latitude": 42.38831608,
    "Longitude": -71.11068249,
    "District": "Somerville",
    "Public": "Yes",
    "Total docks": 19,
    "Deployment Year": 2019
  },
  {
    "Number": "D32010",
    "Name": "Cross St at Hanover St",
    "Latitude": 42.362811,
    "Longitude": -71.056067,
    "District": "Boston",
    "Public": "Yes",
    "Total docks": 19,
    "Deployment Year": 2011
  },
  {
    "Number": "E32001",
    "Name": "Curtis Hall - South St at Centre St",
    "Latitude": 42.309054,
    "Longitude": -71.11543,
    "District": "Boston",
    "Public": "Yes",
    "Total docks": 15,
    "Deployment Year": 2013
  },
  {
    "Number": "K32009",
    "Name": "Cypress St at Clark Playground",
    "Latitude": 42.32784317,
    "Longitude": -71.12536222,
    "District": "Brookline",
    "Public": "Yes",
    "Total docks": 15,
    "Deployment Year": 2018
  },
  {
    "Number": "M32030",
    "Name": "Dana Park",
    "Latitude": 42.36178044,
    "Longitude": -71.10809952,
    "District": "Cambridge",
    "Public": "Yes",
    "Total docks": 19,
    "Deployment Year": 2014
  },
  {
    "Number": "M32031",
    "Name": "Danehy Park",
    "Latitude": 42.388966,
    "Longitude": -71.132788,
    "District": "Cambridge",
    "Public": "Yes",
    "Total docks": 17,
    "Deployment Year": 2014
  },
  {
    "Number": "M32075",
    "Name": "Danehy Park at New Street",
    "Latitude": 42.389456,
    "Longitude": -71.139019,
    "District": "Cambridge",
    "Public": "Yes",
    "Total docks": 19,
    "Deployment Year": 2021
  },
  {
    "Number": "S32006",
    "Name": "Davis Square",
    "Latitude": 42.396969,
    "Longitude": -71.123024,
    "District": "Somerville",
    "Public": "Yes",
    "Total docks": 25,
    "Deployment Year": 2012
  },
  {
    "Number": "A32051",
    "Name": "Day Sq",
    "Latitude": 42.379295,
    "Longitude": -71.027733,
    "District": "Boston",
    "Public": "Yes",
    "Total docks": 16,
    "Deployment Year": 2020
  },
  {
    "Number": "B32037",
    "Name": "Deerfield St at Commonwealth Ave",
    "Latitude": 42.34924377,
    "Longitude": -71.0972821,
    "District": "Boston",
    "Public": "Yes",
    "Total docks": 19,
    "Deployment Year": 2018
  },
  {
    "Number": "T32018",
    "Name": "Derby Street",
    "Latitude": 42.52009618,
    "Longitude": -70.89139044,
    "District": "Salem",
    "Public": "Yes",
    "Total docks": 11,
    "Deployment Year": 2023
  },
  {
    "Number": "M32066",
    "Name": "Discovery Park - 30 Acorn Park Drive",
    "Latitude": 42.39790817,
    "Longitude": -71.14797131,
    "District": "Cambridge",
    "Public": "Yes",
    "Total docks": 23,
    "Deployment Year": 2019
  },
  {
    "Number": "C32009",
    "Name": "Dorchester Ave at Gillette Park",
    "Latitude": 42.34404051,
    "Longitude": -71.05737627,
    "District": "Boston",
    "Public": "Yes",
    "Total docks": 15,
    "Deployment Year": 2011
  },
  {
    "Number": "C32066",
    "Name": "Dorchester Ave at King St",
    "Latitude": 42.291718,
    "Longitude": -71.062571,
    "District": "Boston",
    "Public": "Yes",
    "Total docks": 15,
    "Deployment Year": 2019
  },
  {
    "Number": "B32017",
    "Name": "Dudley Square - Bolling Building",
    "Latitude": 42.32984299,
    "Longitude": -71.08386572,
    "District": "Boston",
    "Public": "Yes",
    "Total docks": 17,
    "Deployment Year": 2011
  },
  {
    "Number": "C32015",
    "Name": "Dudley Town Common - Mt Pleasant Ave at Blue Hill Ave",
    "Latitude": 42.325333,
    "Longitude": -71.075354,
    "District": "Boston",
    "Public": "Yes",
    "Total docks": 15,
    "Deployment Year": 2012
  },
  {
    "Number": "C32018",
    "Name": "E Cottage St at Columbia Rd",
    "Latitude": 42.320561,
    "Longitude": -71.06198,
    "District": "Boston",
    "Public": "Yes",
    "Total docks": 19,
    "Deployment Year": 2013
  },
  {
    "Number": "A32031",
    "Name": "East Boston Neighborhood Health Center - 20 Maverick Square",
    "Latitude": 42.369536,
    "Longitude": -71.039431,
    "District": "Boston",
    "Public": "Yes",
    "Total docks": 16,
    "Deployment Year": 2016
  },
  {
    "Number": "S32017",
    "Name": "East Somerville Library (Broadway and Illinois)",
    "Latitude": 42.38762811,
    "Longitude": -71.08318716,
    "District": "Somerville",
    "Public": "Yes",
    "Total docks": 15,
    "Deployment Year": 2018
  },
  {
    "Number": "S32038",
    "Name": "Edgerly Education Center",
    "Latitude": 42.38717463,
    "Longitude": -71.08714389,
    "District": "Somerville",
    "Public": "Yes",
    "Total docks": 15,
    "Deployment Year": 2019
  },
  {
    "Number": "A32022",
    "Name": "Edwards Playground - Main St at Eden St",
    "Latitude": 42.378965,
    "Longitude": -71.068607,
    "District": "Boston",
    "Public": "Yes",
    "Total docks": 19,
    "Deployment Year": 2015
  },
  {
    "Number": "M32034",
    "Name": "EF - North Point Park",
    "Latitude": 42.369885,
    "Longitude": -71.069957,
    "District": "Cambridge",
    "Public": "Yes",
    "Total docks": 23,
    "Deployment Year": 2014
  },
  {
    "Number": "E32004",
    "Name": "Egleston Square - Atherton St at Washington St",
    "Latitude": 42.315692,
    "Longitude": -71.098634,
    "District": "Boston",
    "Public": "Yes",
    "Total docks": 15,
    "Deployment Year": 2013
  },
  {
    "Number": "S32039",
    "Name": "Elm St at White St",
    "Latitude": 42.38952436,
    "Longitude": -71.1169414,
    "District": "Somerville",
    "Public": "Yes",
    "Total docks": 19,
    "Deployment Year": 2019
  },
  {
    "Number": "V32005",
    "Name": "Encore",
    "Latitude": 42.39329263,
    "Longitude": -71.0724476,
    "District": "Everett",
    "Public": "Yes",
    "Total docks": 15,
    "Deployment Year": 2019
  },
  {
    "Number": "T32011",
    "Name": "Essex St at Dalton Parkway",
    "Latitude": 42.516223,
    "Longitude": -70.905535,
    "District": "Salem",
    "Public": "Yes",
    "Total docks": 11,
    "Deployment Year": 2022
  },
  {
    "Number": "V32003",
    "Name": "Everett Square (Broadway at Chelsea St)",
    "Latitude": 42.40701602,
    "Longitude": -71.05645001,
    "District": "Everett",
    "Public": "Yes",
    "Total docks": 16,
    "Deployment Year": 2019
  },
  {
    "Number": "A32000",
    "Name": "Fan Pier",
    "Latitude": 42.35339051,
    "Longitude": -71.0445714,
    "District": "Boston",
    "Public": "Yes",
    "Total docks": 15,
    "Deployment Year": 2011
  },
  {
    "Number": "C32051",
    "Name": "Farragut Rd at E. 6th St",
    "Latitude": 42.3334,
    "Longitude": -71.02495,
    "District": "Boston",
    "Public": "Yes",
    "Total docks": 23,
    "Deployment Year": 2018
  },
  {
    "Number": "C32041",
    "Name": "Fields Corner T Stop",
    "Latitude": 42.29963349,
    "Longitude": -71.06068976,
    "District": "Boston",
    "Public": "Yes",
    "Total docks": 15,
    "Deployment Year": 2018
  },
  {
    "Number": "B32064",
    "Name": "Flat 9 at Whittier",
    "Latitude": 42.33420351,
    "Longitude": -71.08767617,
    "District": "Boston",
    "Public": "Yes",
    "Total docks": 15,
    "Deployment Year": 2022
  },
  {
    "Number": "S32047",
    "Name": "Foley St at Grand Union Blvd",
    "Latitude": 42.3930184,
    "Longitude": -71.08071685,
    "District": "Somerville",
    "Public": "Yes",
    "Total docks": 19,
    "Deployment Year": 2021
  },
  {
    "Number": "E32010",
    "Name": "Forest Hills",
    "Latitude": 42.300923,
    "Longitude": -71.114249,
    "District": "Boston",
    "Public": "Yes",
    "Total docks": 40,
    "Deployment Year": 2019
  },
  {
    "Number": "T32010",
    "Name": "Forest River Park",
    "Latitude": 42.506395,
    "Longitude": -70.88693,
    "District": "Salem",
    "Public": "Yes",
    "Total docks": 11,
    "Deployment Year": 2022
  },
  {
    "Number": "B32062",
    "Name": "Forsyth St at Huntington Ave",
    "Latitude": 42.339202,
    "Longitude": -71.090511,
    "District": "Boston",
    "Public": "Yes",
    "Total docks": 15,
    "Deployment Year": 2021
  },
  {
    "Number": "S32015",
    "Name": "Foss Park",
    "Latitude": 42.39108438,
    "Longitude": -71.09039426,
    "District": "Somerville",
    "Public": "Yes",
    "Total docks": 15,
    "Deployment Year": 2018
  },
  {
    "Number": "C32037",
    "Name": "Four Corners - 157 Washington St",
    "Latitude": 42.30412793,
    "Longitude": -71.07929528,
    "District": "Boston",
    "Public": "Yes",
    "Total docks": 11,
    "Deployment Year": 2018
  },
  {
    "Number": "C32027",
    "Name": "Franklin Park - Seaver St at Humboldt Ave",
    "Latitude": 42.309796,
    "Longitude": -71.092225,
    "District": "Boston",
    "Public": "Yes",
    "Total docks": 15,
    "Deployment Year": 2015
  },
  {
    "Number": "C32030",
    "Name": "Franklin Park Zoo - Franklin Park Rd at Blue Hill Ave",
    "Latitude": 42.303469,
    "Longitude": -71.085347,
    "District": "Boston",
    "Public": "Yes",
    "Total docks": 14,
    "Deployment Year": 2015
  },
  {
    "Number": "M32051",
    "Name": "Fresh Pond Reservation",
    "Latitude": 42.38267828,
    "Longitude": -71.14347895,
    "District": "Cambridge",
    "Public": "Yes",
    "Total docks": 17,
    "Deployment Year": 2017
  },
  {
    "Number": "M32078",
    "Name": "Galileo Galilei Way at Fulkerson St/Binney St",
    "Latitude": 42.3664204,
    "Longitude": -71.0885418,
    "District": "Cambridge",
    "Public": "Yes",
    "Total docks": 19,
    "Deployment Year": 2022
  },
  {
    "Number": "M32072",
    "Name": "Galileo Galilei Way at Main Street",
    "Latitude": 42.36300378,
    "Longitude": -71.08974038,
    "District": "Cambridge",
    "Public": "Yes",
    "Total docks": 19,
    "Deployment Year": 2020
  },
  {
    "Number": "C32040",
    "Name": "Gallivan Blvd at Adams St",
    "Latitude": 42.28297568,
    "Longitude": -71.05466698,
    "District": "Boston",
    "Public": "Yes",
    "Total docks": 15,
    "Deployment Year": 2018
  },
  {
    "Number": "C32090",
    "Name": "Geiger Gibson Community Health Center",
    "Latitude": 42.31886468,
    "Longitude": -71.04536798,
    "District": "Boston",
    "Public": "Yes",
    "Total docks": 19,
    "Deployment Year": 2019
  },
  {
    "Number": "S32046",
    "Name": "Gilman Square T at Medford St",
    "Latitude": 42.3867355,
    "Longitude": -71.0946444,
    "District": "Somerville",
    "Public": "Yes",
    "Total docks": 19,
    "Deployment Year": 2021
  },
  {
    "Number": "V32006",
    "Name": "Glendale Square (Ferry St at Broadway)",
    "Latitude": 42.41427294,
    "Longitude": -71.04479656,
    "District": "Everett",
    "Public": "Yes",
    "Total docks": 15,
    "Deployment Year": 2019
  },
  {
    "Number": "A32034",
    "Name": "Glendon St at Condor St",
    "Latitude": 42.38240378,
    "Longitude": -71.03024304,
    "District": "Boston",
    "Public": "Yes",
    "Total docks": 19,
    "Deployment Year": 2016
  },
  {
    "Number": "T32014",
    "Name": "Goodhue St at Grove St",
    "Latitude": 42.520897,
    "Longitude": -70.910528,
    "District": "Salem",
    "Public": "Yes",
    "Total docks": 11,
    "Deployment Year": 2022
  },
  {
    "Number": "M32081",
    "Name": "Gore Street at Lambert Street",
    "Latitude": 42.3730798,
    "Longitude": -71.08634234,
    "District": "Cambridge",
    "Public": "Yes",
    "Total docks": 19,
    "Deployment Year": 2022
  },
  {
    "Number": "A32049",
    "Name": "Gove St at Orleans St",
    "Latitude": 42.37057753,
    "Longitude": -71.0355854,
    "District": "Boston",
    "Public": "Yes",
    "Total docks": 19,
    "Deployment Year": 2020
  },
  {
    "Number": "B32032",
    "Name": "Government Center - Cambridge St at Court St",
    "Latitude": 42.3598254,
    "Longitude": -71.05979576,
    "District": "Boston",
    "Public": "Yes",
    "Total docks": 35,
    "Deployment Year": 2018
  },
  {
    "Number": "M32068",
    "Name": "Graham and Parks School ? Linnaean St at Walker St",
    "Latitude": 42.3829443,
    "Longitude": -71.12449831,
    "District": "Cambridge",
    "Public": "Yes",
    "Total docks": 18,
    "Deployment Year": 2020
  },
  {
    "Number": "V32015",
    "Name": "Gramsdorf Playground",
    "Latitude": 42.408156,
    "Longitude": -71.0429,
    "District": "Everett",
    "Public": "Yes",
    "Total docks": 14,
    "Deployment Year": 2022
  },
  {
    "Number": "E32005",
    "Name": "Green Street T Stop - Green St at Amory St",
    "Latitude": 42.310579,
    "Longitude": -71.107341,
    "District": "Boston",
    "Public": "Yes",
    "Total docks": 23,
    "Deployment Year": 2013
  },
  {
    "Number": "B32028",
    "Name": "Grove Hall Library - 41 Geneva Ave",
    "Latitude": 42.30791,
    "Longitude": -71.080952,
    "District": "Boston",
    "Public": "Yes",
    "Total docks": 15,
    "Deployment Year": 2016
  },
  {
    "Number": "S32019",
    "Name": "Grove St at Community Path",
    "Latitude": 42.39638681,
    "Longitude": -71.12011306,
    "District": "Somerville",
    "Public": "Yes",
    "Total docks": 15,
    "Deployment Year": 2018
  },
  {
    "Number": "F32005",
    "Name": "Haines Square",
    "Latitude": 42.42333137,
    "Longitude": -71.09124541,
    "District": "Medford",
    "Public": "Yes",
    "Total docks": 11,
    "Deployment Year": 2023
  },
  {
    "Number": "V32012",
    "Name": "Hale Park",
    "Latitude": 42.4206487,
    "Longitude": -71.0437126,
    "District": "Everett",
    "Public": "Yes",
    "Total docks": 0,
    "Deployment Year": 2020
  },
  {
    "Number": "F32004",
    "Name": "Harris Park",
    "Latitude": 42.41081837,
    "Longitude": -71.08152866,
    "District": "Medford",
    "Public": "Yes",
    "Total docks": 11,
    "Deployment Year": 2023
  },
  {
    "Number": "D32043",
    "Name": "Harrison Ave at Bennet St",
    "Latitude": 42.3494261,
    "Longitude": -71.0620996,
    "District": "Boston",
    "Public": "Yes",
    "Total docks": 19,
    "Deployment Year": 2018
  },
  {
    "Number": "C32093",
    "Name": "Harrison Ave at E. Dedham St",
    "Latitude": 42.339194,
    "Longitude": -71.06975,
    "District": "Boston",
    "Public": "Yes",
    "Total docks": 19,
    "Deployment Year": 2020
  },
  {
    "Number": "C32057",
    "Name": "Harrison Ave at Mullins Way",
    "Latitude": 42.34521562,
    "Longitude": -71.06384031,
    "District": "Boston",
    "Public": "Yes",
    "Total docks": 19,
    "Deployment Year": 2018
  },
  {
    "Number": "D32035",
    "Name": "Harvard Ave at Brainerd Rd",
    "Latitude": 42.34953017,
    "Longitude": -71.13022771,
    "District": "Boston",
    "Public": "Yes",
    "Total docks": 15,
    "Deployment Year": 2018
  },
  {
    "Number": "M32016",
    "Name": "Harvard Kennedy School at Bennett St / Eliot St",
    "Latitude": 42.3722168,
    "Longitude": -71.12188071,
    "District": "Cambridge",
    "Public": "Yes",
    "Total docks": 23,
    "Deployment Year": 2012
  },
  {
    "Number": "M32020",
    "Name": "Harvard Law School at Mass Ave / Jarvis St",
    "Latitude": 42.379011,
    "Longitude": -71.119945,
    "District": "Cambridge",
    "Public": "Yes",
    "Total docks": 19,
    "Deployment Year": 2012
  },
  {
    "Number": "M32017",
    "Name": "Harvard Square at Brattle St / Eliot St",
    "Latitude": 42.3733288,
    "Longitude": -71.12098601,
    "District": "Cambridge",
    "Public": "Yes",
    "Total docks": 15,
    "Deployment Year": 2012
  },
  {
    "Number": "M32018",
    "Name": "Harvard Square at Mass Ave/ Dunster",
    "Latitude": 42.373268,
    "Longitude": -71.118579,
    "District": "Cambridge",
    "Public": "Yes",
    "Total docks": 19,
    "Deployment Year": 2012
  },
  {
    "Number": "K32017",
    "Name": "Harvard St and Stedman St",
    "Latitude": 42.34435176,
    "Longitude": -71.12490356,
    "District": "Brookline",
    "Public": "Yes",
    "Total docks": 15,
    "Deployment Year": 2021
  },
  {
    "Number": "M32055",
    "Name": "Harvard St at Greene-Rose Heritage Park",
    "Latitude": 42.36599433,
    "Longitude": -71.09522222,
    "District": "Cambridge",
    "Public": "Yes",
    "Total docks": 19,
    "Deployment Year": 2018
  },
  {
    "Number": "A32052",
    "Name": "Harvard Stadium: N. Harvard St at Soldiers Field Rd",
    "Latitude": 42.368019,
    "Longitude": -71.1242,
    "District": "Boston",
    "Public": "Yes",
    "Total docks": 15,
    "Deployment Year": 2020
  },
  {
    "Number": "M32023",
    "Name": "Harvard University / SEAS Cruft-Pierce Halls at 29 Oxford St",
    "Latitude": 42.377945,
    "Longitude": -71.116865,
    "District": "Cambridge",
    "Public": "Yes",
    "Total docks": 17,
    "Deployment Year": 2012
  },
  {
    "Number": "M32021",
    "Name": "Harvard University Gund Hall at Quincy St / Kirkland St",
    "Latitude": 42.376369,
    "Longitude": -71.114025,
    "District": "Cambridge",
    "Public": "Yes",
    "Total docks": 15,
    "Deployment Year": 2013
  },
  {
    "Number": "M32014",
    "Name": "Harvard University Housing - 115 Putnam Ave at Peabody Terrace",
    "Latitude": 42.366621,
    "Longitude": -71.114214,
    "District": "Cambridge",
    "Public": "Yes",
    "Total docks": 15,
    "Deployment Year": 2012
  },
  {
    "Number": "M32024",
    "Name": "Harvard University Radcliffe Quadrangle at Shepard St / Garden St",
    "Latitude": 42.380287,
    "Longitude": -71.125107,
    "District": "Cambridge",
    "Public": "Yes",
    "Total docks": 19,
    "Deployment Year": 2012
  },
  {
    "Number": "M32038",
    "Name": "Harvard University River Houses at DeWolfe St / Cowperthwaite St",
    "Latitude": 42.36923907,
    "Longitude": -71.11687034,
    "District": "Cambridge",
    "Public": "Yes",
    "Total docks": 21,
    "Deployment Year": 2012
  },
  {
    "Number": "T32008",
    "Name": "Hawthorne Boulevard",
    "Latitude": 42.5223714,
    "Longitude": -70.8903331,
    "District": "Salem",
    "Public": "Yes",
    "Total docks": 9,
    "Deployment Year": 2022
  },
  {
    "Number": "D32026",
    "Name": "Hayes Square - Vine St at Moulton St",
    "Latitude": 42.377022,
    "Longitude": -71.056605,
    "District": "Boston",
    "Public": "Yes",
    "Total docks": 19,
    "Deployment Year": 2013
  },
  {
    "Number": "K32010",
    "Name": "High St at Cypress St",
    "Latitude": 42.32464511,
    "Longitude": -71.12135231,
    "District": "Brookline",
    "Public": "Yes",
    "Total docks": 15,
    "Deployment Year": 2019
  },
  {
    "Number": "B32003",
    "Name": "HMS/HSPH - Avenue Louis Pasteur at Longwood Ave",
    "Latitude": 42.33741748,
    "Longitude": -71.10286117,
    "District": "Boston",
    "Public": "Yes",
    "Total docks": 25,
    "Deployment Year": 2011
  },
  {
    "Number": "A32040",
    "Name": "Honan Library",
    "Latitude": 42.3602737,
    "Longitude": -71.12852452,
    "District": "Boston",
    "Public": "Yes",
    "Total docks": 15,
    "Deployment Year": 2018
  },
  {
    "Number": "D32060",
    "Name": "Hood Park",
    "Latitude": 42.38004535,
    "Longitude": -71.07304573,
    "District": "Boston",
    "Public": "Yes",
    "Total docks": 23,
    "Deployment Year": 2022
  },
  {
    "Number": "F32006",
    "Name": "Hormel Stadium",
    "Latitude": 42.40721644,
    "Longitude": -71.09651506,
    "District": "Medford",
    "Public": "Yes",
    "Total docks": 11,
    "Deployment Year": 2023
  },
  {
    "Number": "B32033",
    "Name": "Huntington Ave at Mass Art",
    "Latitude": 42.33658555,
    "Longitude": -71.09886996,
    "District": "Boston",
    "Public": "Yes",
    "Total docks": 15,
    "Deployment Year": 2018
  },
  {
    "Number": "M32044",
    "Name": "Huron Ave At Vassal Lane",
    "Latitude": 42.38165061,
    "Longitude": -71.13426981,
    "District": "Cambridge",
    "Public": "Yes",
    "Total docks": 19,
    "Deployment Year": 2017
  },
  {
    "Number": "C32100",
    "Name": "Hyde Park Ave at Arlington St",
    "Latitude": 42.26286746,
    "Longitude": -71.12163126,
    "District": "Boston",
    "Public": "Yes",
    "Total docks": 19,
    "Deployment Year": 2021
  },
  {
    "Number": "C32089",
    "Name": "Hyde Park Ave at Walk Hill St",
    "Latitude": 42.29606705,
    "Longitude": -71.116012,
    "District": "Boston",
    "Public": "Yes",
    "Total docks": 15,
    "Deployment Year": 2019
  },
  {
    "Number": "E32013",
    "Name": "Hyde Park Library",
    "Latitude": 42.2568376,
    "Longitude": -71.122509,
    "District": "Boston",
    "Public": "Yes",
    "Total docks": 15,
    "Deployment Year": 2021
  },
  {
    "Number": "E32003",
    "Name": "Hyde Square - Barbara St at Centre St",
    "Latitude": 42.32176526,
    "Longitude": -71.10984161,
    "District": "Boston",
    "Public": "Yes",
    "Total docks": 15,
    "Deployment Year": 2013
  },
  {
    "Number": "C32020",
    "Name": "ID Building East",
    "Latitude": 42.344827,
    "Longitude": -71.028664,
    "District": "Boston",
    "Public": "Yes",
    "Total docks": 17,
    "Deployment Year": 2014
  },
  {
    "Number": "C32021",
    "Name": "ID Building West",
    "Latitude": 42.344796,
    "Longitude": -71.031614,
    "District": "Boston",
    "Public": "Yes",
    "Total docks": 19,
    "Deployment Year": 2014
  },
  {
    "Number": "C32025",
    "Name": "Ink Block - Harrison Ave at Herald St",
    "Latitude": 42.345901,
    "Longitude": -71.063187,
    "District": "Boston",
    "Public": "Yes",
    "Total docks": 27,
    "Deployment Year": 2015
  },
  {
    "Number": "M32062",
    "Name": "Inman Square at Springfield St.",
    "Latitude": 42.37426714,
    "Longitude": -71.10026479,
    "District": "Cambridge",
    "Public": "Yes",
    "Total docks": 25,
    "Deployment Year": 2019
  },
  {
    "Number": "A32011",
    "Name": "Innovation Lab - 125 Western Ave at Batten Way",
    "Latitude": 42.36371276,
    "Longitude": -71.12459779,
    "District": "Boston",
    "Public": "Yes",
    "Total docks": 19,
    "Deployment Year": 2011
  },
  {
    "Number": "E32006",
    "Name": "Jackson Square T Stop",
    "Latitude": 42.32293117,
    "Longitude": -71.10014141,
    "District": "Boston",
    "Public": "Yes",
    "Total docks": 18,
    "Deployment Year": 2013
  },
  {
    "Number": "D32052",
    "Name": "Jamaica St at South St",
    "Latitude": 42.30604563,
    "Longitude": -71.11570891,
    "District": "Boston",
    "Public": "Yes",
    "Total docks": 19,
    "Deployment Year": 2019
  },
  {
    "Number": "K32004",
    "Name": "JFK Crossing at Harvard St. / Thorndike St.",
    "Latitude": 42.34655124,
    "Longitude": -71.12833211,
    "District": "Brookline",
    "Public": "Yes",
    "Total docks": 15,
    "Deployment Year": 2013
  },
  {
    "Number": "C32013",
    "Name": "JFK/UMass T Stop",
    "Latitude": 42.32033974,
    "Longitude": -71.05118036,
    "District": "Boston",
    "Public": "Yes",
    "Total docks": 15,
    "Deployment Year": 2012
  },
  {
    "Number": "M32083",
    "Name": "John Ahern Field at Kennedy-Longfellow School",
    "Latitude": 42.36903567,
    "Longitude": -71.0863096,
    "District": "Cambridge",
    "Public": "Yes",
    "Total docks": 19,
    "Deployment Year": 2022
  },
  {
    "Number": "V32013",
    "Name": "Kearins Playground",
    "Latitude": 42.40616124,
    "Longitude": -71.06041655,
    "District": "Everett",
    "Public": "Yes",
    "Total docks": 11,
    "Deployment Year": 2020
  },
  {
    "Number": "M32032",
    "Name": "Kendall Street",
    "Latitude": 42.36356016,
    "Longitude": -71.08216792,
    "District": "Cambridge",
    "Public": "Yes",
    "Total docks": 17,
    "Deployment Year": 2014
  },
  {
    "Number": "M32004",
    "Name": "Kendall T",
    "Latitude": 42.36242784,
    "Longitude": -71.08495474,
    "District": "Cambridge",
    "Public": "Yes",
    "Total docks": 23,
    "Deployment Year": 2016
  },
  {
    "Number": "B32010",
    "Name": "Kenmore Square",
    "Latitude": 42.348706,
    "Longitude": -71.097009,
    "District": "Boston",
    "Public": "Yes",
    "Total docks": 26,
    "Deployment Year": 2011
  },
  {
    "Number": "M32065",
    "Name": "Kennedy-Longfellow School 158 Spring St",
    "Latitude": 42.36955298,
    "Longitude": -71.08579015,
    "District": "Cambridge",
    "Public": "Yes",
    "Total docks": 19,
    "Deployment Year": 2019
  },
  {
    "Number": "C32096",
    "Name": "Knoll St at Centre St",
    "Latitude": 42.29376656,
    "Longitude": -71.1365658,
    "District": "Boston",
    "Public": "Yes",
    "Total docks": 19,
    "Deployment Year": 2021
  },
  {
    "Number": "T32006",
    "Name": "Lafayette at Leach St",
    "Latitude": 42.51142784,
    "Longitude": -70.89183301,
    "District": "Salem",
    "Public": "Yes",
    "Total docks": 11,
    "Deployment Year": 2021
  },
  {
    "Number": "M32009",
    "Name": "Lafayette Square at Mass Ave / Main St / Columbia St",
    "Latitude": 42.36346469,
    "Longitude": -71.10057324,
    "District": "Cambridge",
    "Public": "Yes",
    "Total docks": 15,
    "Deployment Year": 2012
  },
  {
    "Number": "B32015",
    "Name": "Landmark Center - Brookline Ave at Park Dr",
    "Latitude": 42.34369056,
    "Longitude": -71.10235287,
    "District": "Boston",
    "Public": "Yes",
    "Total docks": 15,
    "Deployment Year": 2011
  },
  {
    "Number": "N32008",
    "Name": "Langley Lot",
    "Latitude": 42.330528,
    "Longitude": -71.192861,
    "District": "Newton",
    "Public": "Yes",
    "Total docks": 11,
    "Deployment Year": 2020
  },
  {
    "Number": "B32058",
    "Name": "Lansdowne T Stop",
    "Latitude": 42.34734473,
    "Longitude": -71.10016808,
    "District": "Boston",
    "Public": "Yes",
    "Total docks": 27,
    "Deployment Year": 2019
  },
  {
    "Number": "M32001",
    "Name": "Lechmere Station at Cambridge St / First St",
    "Latitude": 42.370677,
    "Longitude": -71.076529,
    "District": "Cambridge",
    "Public": "Yes",
    "Total docks": 19,
    "Deployment Year": 2012
  },
  {
    "Number": "D32061",
    "Name": "Lenox St at Kendall St",
    "Latitude": 42.33759485,
    "Longitude": -71.08255059,
    "District": "Boston",
    "Public": "Yes",
    "Total docks": 17,
    "Deployment Year": 2023
  },
  {
    "Number": "M32039",
    "Name": "Lesley University",
    "Latitude": 42.38674802,
    "Longitude": -71.11901879,
    "District": "Cambridge",
    "Public": "Yes",
    "Total docks": 15,
    "Deployment Year": 2015
  },
  {
    "Number": "A32057",
    "Name": "Lewis Mall Wharf",
    "Latitude": 42.36567871,
    "Longitude": -71.04030132,
    "District": "Boston",
    "Public": "Yes",
    "Total docks": 21,
    "Deployment Year": ""
  },
  {
    "Number": "D32006",
    "Name": "Lewis Wharf at Atlantic Ave",
    "Latitude": 42.363871,
    "Longitude": -71.050877,
    "District": "Boston",
    "Public": "Yes",
    "Total docks": 19,
    "Deployment Year": 2011
  },
  {
    "Number": "M32025",
    "Name": "Linear Park - Mass. Ave. at Cameron Ave.",
    "Latitude": 42.397828,
    "Longitude": -71.130516,
    "District": "Cambridge",
    "Public": "Yes",
    "Total docks": 19,
    "Deployment Year": ""
  },
  {
    "Number": "L32002",
    "Name": "Linwood St at Minuteman Bikeway",
    "Latitude": 42.40935396,
    "Longitude": -71.14906519,
    "District": "Arlington",
    "Public": "Yes",
    "Total docks": 11,
    "Deployment Year": 2020
  },
  {
    "Number": "A32004",
    "Name": "Longwood Ave at Binney St",
    "Latitude": 42.338629,
    "Longitude": -71.1065,
    "District": "Boston",
    "Public": "Yes",
    "Total docks": 15,
    "Deployment Year": 2011
  },
  {
    "Number": "M32022",
    "Name": "Lower Cambridgeport at Magazine St / Riverside Rd",
    "Latitude": 42.3572185,
    "Longitude": -71.11387163,
    "District": "Cambridge",
    "Public": "Yes",
    "Total docks": 19,
    "Deployment Year": 2012
  },
  {
    "Number": "S32013",
    "Name": "Magoun Square at Trum Field",
    "Latitude": 42.3977834,
    "Longitude": -71.10594004,
    "District": "Somerville",
    "Public": "Yes",
    "Total docks": 14,
    "Deployment Year": 2014
  },
  {
    "Number": "D32020",
    "Name": "Main St at Austin St",
    "Latitude": 42.375603,
    "Longitude": -71.064608,
    "District": "Boston",
    "Public": "Yes",
    "Total docks": 11,
    "Deployment Year": 2012
  },
  {
    "Number": "D32036",
    "Name": "Main St at Baldwin St",
    "Latitude": 42.380857,
    "Longitude": -71.070629,
    "District": "Boston",
    "Public": "Yes",
    "Total docks": 19,
    "Deployment Year": 2018
  },
  {
    "Number": "F32001",
    "Name": "Main St at Brooks Park",
    "Latitude": 42.411709,
    "Longitude": -71.110444,
    "District": "Medford",
    "Public": "Yes",
    "Total docks": 11,
    "Deployment Year": 2022
  },
  {
    "Number": "D32038",
    "Name": "Main St at Thompson Sq",
    "Latitude": 42.37487847,
    "Longitude": -71.06383499,
    "District": "Boston",
    "Public": "Yes",
    "Total docks": 15,
    "Deployment Year": 2018
  },
  {
    "Number": "M32080",
    "Name": "Main Street/Albany Street/Technology Square",
    "Latitude": 42.3629016,
    "Longitude": -71.0915669,
    "District": "Cambridge",
    "Public": "Yes",
    "Total docks": 23,
    "Deployment Year": 2022
  },
  {
    "Number": "G32001",
    "Name": "Malden Center T Station",
    "Latitude": 42.426541,
    "Longitude": -71.073179,
    "District": "Malden",
    "Public": "Yes",
    "Total docks": 11,
    "Deployment Year": 2022
  },
  {
    "Number": "G32003",
    "Name": "Malden High School",
    "Latitude": 42.42653766,
    "Longitude": -71.06393695,
    "District": "Malden",
    "Public": "Yes",
    "Total docks": 11,
    "Deployment Year": 2022
  },
  {
    "Number": "K32012",
    "Name": "Marion St at Harvard St",
    "Latitude": 42.34012243,
    "Longitude": -71.12070564,
    "District": "Brookline",
    "Public": "Yes",
    "Total docks": 15,
    "Deployment Year": 2019
  },
  {
    "Number": "A32048",
    "Name": "Marion St at White St",
    "Latitude": 42.38066931,
    "Longitude": -71.03907316,
    "District": "Boston",
    "Public": "Yes",
    "Total docks": 19,
    "Deployment Year": 2020
  },
  {
    "Number": "E32012",
    "Name": "Martha Eliot Health Center",
    "Latitude": 42.324173,
    "Longitude": -71.10196,
    "District": "Boston",
    "Public": "Yes",
    "Total docks": 16,
    "Deployment Year": 2020
  },
  {
    "Number": "M32061",
    "Name": "Mass Ave at Albany St",
    "Latitude": 42.36135838,
    "Longitude": -71.09670274,
    "District": "Cambridge",
    "Public": "Yes",
    "Total docks": 17,
    "Deployment Year": 2019
  },
  {
    "Number": "L32006",
    "Name": "Mass Ave at Broadway",
    "Latitude": 42.41420213,
    "Longitude": -71.15051883,
    "District": "Arlington",
    "Public": "Yes",
    "Total docks": 11,
    "Deployment Year": 2021
  },
  {
    "Number": "L32003",
    "Name": "Mass Ave at Grafton St",
    "Latitude": 42.40726052,
    "Longitude": -71.14382132,
    "District": "Arlington",
    "Public": "Yes",
    "Total docks": 11,
    "Deployment Year": 2020
  },
  {
    "Number": "M32056",
    "Name": "Mass Ave at Hadley/Walden",
    "Latitude": 42.39120972,
    "Longitude": -71.12260755,
    "District": "Cambridge",
    "Public": "Yes",
    "Total docks": 19,
    "Deployment Year": 2018
  },
  {
    "Number": "C32063",
    "Name": "Mass Ave T Station",
    "Latitude": 42.34135616,
    "Longitude": -71.08336953,
    "District": "Boston",
    "Public": "Yes",
    "Total docks": 14,
    "Deployment Year": 2019
  },
  {
    "Number": "M32085",
    "Name": "Mass Ave/Lafayette Square",
    "Latitude": 42.36356499,
    "Longitude": -71.10044184,
    "District": "Cambridge",
    "Public": "Yes",
    "Total docks": 15,
    "Deployment Year": 2023
  },
  {
    "Number": "C32004",
    "Name": "Massachusetts Ave at Columbus Ave",
    "Latitude": 42.340814,
    "Longitude": -71.0816197,
    "District": "Boston",
    "Public": "Yes",
    "Total docks": 14,
    "Deployment Year": 2011
  },
  {
    "Number": "C32050",
    "Name": "Mattapan Library",
    "Latitude": 42.2773889,
    "Longitude": -71.09325,
    "District": "Boston",
    "Public": "Yes",
    "Total docks": 15,
    "Deployment Year": 2018
  },
  {
    "Number": "C32045",
    "Name": "Mattapan T Stop",
    "Latitude": 42.267902,
    "Longitude": -71.093641,
    "District": "Boston",
    "Public": "Yes",
    "Total docks": 15,
    "Deployment Year": 2018
  },
  {
    "Number": "A32030",
    "Name": "Maverick Square - Lewis Mall",
    "Latitude": 42.36884408,
    "Longitude": -71.03977829,
    "District": "Boston",
    "Public": "Yes",
    "Total docks": 33,
    "Deployment Year": 2016
  },
  {
    "Number": "A32044",
    "Name": "Maverick St at Massport Path",
    "Latitude": 42.36774122,
    "Longitude": -71.03335975,
    "District": "Boston",
    "Public": "Yes",
    "Total docks": 15,
    "Deployment Year": 2019
  },
  {
    "Number": "T32004",
    "Name": "Mayor Salvo Path at Mill St",
    "Latitude": 42.5180352,
    "Longitude": -70.89570075,
    "District": "Salem",
    "Public": "Yes",
    "Total docks": 11,
    "Deployment Year": 2021
  },
  {
    "Number": "F32002",
    "Name": "Medford Sq - Riverside Ave at River St",
    "Latitude": 42.417724,
    "Longitude": -71.108102,
    "District": "Medford",
    "Public": "Yes",
    "Total docks": 11,
    "Deployment Year": 2022
  },
  {
    "Number": "D32037",
    "Name": "Medford St at Charlestown BCYF",
    "Latitude": 42.38042947,
    "Longitude": -71.06055722,
    "District": "Boston",
    "Public": "Yes",
    "Total docks": 19,
    "Deployment Year": 2018
  },
  {
    "Number": "M32006",
    "Name": "MIT at Mass Ave / Amherst St",
    "Latitude": 42.3581,
    "Longitude": -71.093198,
    "District": "Cambridge",
    "Public": "Yes",
    "Total docks": 27,
    "Deployment Year": 2012
  },
  {
    "Number": "M32070",
    "Name": "MIT Carleton St at Amherst St",
    "Latitude": 42.36054174,
    "Longitude": -71.08669817,
    "District": "Cambridge",
    "Public": "Yes",
    "Total docks": 27,
    "Deployment Year": 2020
  },
  {
    "Number": "M32071",
    "Name": "MIT Hayward St at Amherst St",
    "Latitude": 42.36085937,
    "Longitude": -71.08551858,
    "District": "Cambridge",
    "Public": "Yes",
    "Total docks": 27,
    "Deployment Year": 2020
  },
  {
    "Number": "M32041",
    "Name": "MIT Pacific St at Purrington St",
    "Latitude": 42.3595732,
    "Longitude": -71.10129476,
    "District": "Cambridge",
    "Public": "Yes",
    "Total docks": 19,
    "Deployment Year": 2015
  },
  {
    "Number": "M32005",
    "Name": "MIT Stata Center at Vassar St / Main St",
    "Latitude": 42.36213123,
    "Longitude": -71.09115601,
    "District": "Cambridge",
    "Public": "Yes",
    "Total docks": 35,
    "Deployment Year": 2012
  },
  {
    "Number": "M32042",
    "Name": "MIT Vassar St",
    "Latitude": 42.35560121,
    "Longitude": -71.10394478,
    "District": "Cambridge",
    "Public": "Yes",
    "Total docks": 53,
    "Deployment Year": 2015
  },
  {
    "Number": "B32023",
    "Name": "MLK Blvd at Washington St",
    "Latitude": 42.32143814,
    "Longitude": -71.09126061,
    "District": "Boston",
    "Public": "Yes",
    "Total docks": 15,
    "Deployment Year": 2016
  },
  {
    "Number": "C32103",
    "Name": "Morton St at Gallivan Blvd",
    "Latitude": 42.278747,
    "Longitude": -71.080286,
    "District": "Boston",
    "Public": "Yes",
    "Total docks": 15,
    "Deployment Year": 2021
  },
  {
    "Number": "C23045",
    "Name": "Morton St T",
    "Latitude": 42.28072514,
    "Longitude": -71.08617242,
    "District": "Boston",
    "Public": "Yes",
    "Total docks": 15,
    "Deployment Year": 2018
  },
  {
    "Number": "M32043",
    "Name": "Mt Auburn",
    "Latitude": 42.37478629,
    "Longitude": -71.13320231,
    "District": "Cambridge",
    "Public": "Yes",
    "Total docks": 19,
    "Deployment Year": 2015
  },
  {
    "Number": "C32080",
    "Name": "Mt. Hope St at Hyde Park Ave",
    "Latitude": 42.28484472,
    "Longitude": -71.11874517,
    "District": "Boston",
    "Public": "Yes",
    "Total docks": 19,
    "Deployment Year": 2019
  },
  {
    "Number": "D32017",
    "Name": "Mugar Way at Beacon St",
    "Latitude": 42.35553628,
    "Longitude": -71.0728687,
    "District": "Boston",
    "Public": "Yes",
    "Total docks": 19,
    "Deployment Year": 2011
  },
  {
    "Number": "C32023",
    "Name": "Murphy Skating Rink - 1880 Day Blvd",
    "Latitude": 42.336448,
    "Longitude": -71.023739,
    "District": "Boston",
    "Public": "Yes",
    "Total docks": 19,
    "Deployment Year": 2014
  },
  {
    "Number": "M32045",
    "Name": "Museum of Science",
    "Latitude": 42.36769018,
    "Longitude": -71.07116282,
    "District": "Cambridge",
    "Public": "Yes",
    "Total docks": 19,
    "Deployment Year": 2017
  },
  {
    "Number": "A32025",
    "Name": "Nashua Street at Red Auerbach Way",
    "Latitude": 42.365673,
    "Longitude": -71.064263,
    "District": "Boston",
    "Public": "Yes",
    "Total docks": 35,
    "Deployment Year": 2016
  },
  {
    "Number": "B32027",
    "Name": "NCAAA - Walnut Ave at Crawford St",
    "Latitude": 42.316902,
    "Longitude": -71.091946,
    "District": "Boston",
    "Public": "Yes",
    "Total docks": 15,
    "Deployment Year": 2016
  },
  {
    "Number": "D32001",
    "Name": "New Balance - 20 Guest St",
    "Latitude": 42.35732922,
    "Longitude": -71.1467354,
    "District": "Boston",
    "Public": "Yes",
    "Total docks": 15,
    "Deployment Year": 2011
  },
  {
    "Number": "B32000",
    "Name": "Newbury St at Hereford St",
    "Latitude": 42.348717,
    "Longitude": -71.085954,
    "District": "Boston",
    "Public": "Yes",
    "Total docks": 22,
    "Deployment Year": 2011
  },
  {
    "Number": "C32022",
    "Name": "Newmarket Square T Stop - Massachusetts Ave at Newmarket Square",
    "Latitude": 42.326599,
    "Longitude": -71.066498,
    "District": "Boston",
    "Public": "Yes",
    "Total docks": 15,
    "Deployment Year": 2014
  },
  {
    "Number": "N32010",
    "Name": "Newton Highlands T",
    "Latitude": 42.32206566,
    "Longitude": -71.20637298,
    "District": "Newton",
    "Public": "Yes",
    "Total docks": 15,
    "Deployment Year": 2021
  },
  {
    "Number": "N32013",
    "Name": "Newton Library",
    "Latitude": 42.33620337,
    "Longitude": -71.20779455,
    "District": "Newton",
    "Public": "Yes",
    "Total docks": 13,
    "Deployment Year": 2021
  },
  {
    "Number": "W32007",
    "Name": "Nichols Ave. at Watertown Greenway",
    "Latitude": 42.36762049,
    "Longitude": -71.15656637,
    "District": "Watertown",
    "Public": "Yes",
    "Total docks": 12,
    "Deployment Year": 2021
  },
  {
    "Number": "N32002",
    "Name": "Nonantum Library",
    "Latitude": 42.36068456,
    "Longitude": -71.201462,
    "District": "Newton",
    "Public": "Yes",
    "Total docks": 15,
    "Deployment Year": 2020
  },
  {
    "Number": "T32015",
    "Name": "North St at Liberty Hill Ave",
    "Latitude": 42.52989965,
    "Longitude": -70.90614259,
    "District": "Salem",
    "Public": "Yes",
    "Total docks": 11,
    "Deployment Year": 2022
  },
  {
    "Number": "C32078",
    "Name": "Northbourne Rd at Hyde Park Ave",
    "Latitude": 42.29118035,
    "Longitude": -71.11773666,
    "District": "Boston",
    "Public": "Yes",
    "Total docks": 19,
    "Deployment Year": 2019
  },
  {
    "Number": "B32012",
    "Name": "Northeastern University - North Parking Lot",
    "Latitude": 42.341814,
    "Longitude": -71.090179,
    "District": "Boston",
    "Public": "Yes",
    "Total docks": 15,
    "Deployment Year": 2011
  },
  {
    "Number": "G32002",
    "Name": "Northern Strand at Main St",
    "Latitude": 42.42386,
    "Longitude": -71.067793,
    "District": "Malden",
    "Public": "Yes",
    "Total docks": 11,
    "Deployment Year": 2022
  },
  {
    "Number": "D32031",
    "Name": "Oak Square - 615 Washington St",
    "Latitude": 42.35057,
    "Longitude": -71.166491,
    "District": "Boston",
    "Public": "Yes",
    "Total docks": 14,
    "Deployment Year": 2016
  },
  {
    "Number": "M32076",
    "Name": "Old Morse Park at Putnam Ave",
    "Latitude": 42.35766248,
    "Longitude": -71.10841334,
    "District": "Cambridge",
    "Public": "Yes",
    "Total docks": 15,
    "Deployment Year": 2021
  },
  {
    "Number": "B32061",
    "Name": "One Beacon St",
    "Latitude": 42.35847764,
    "Longitude": -71.0613513,
    "District": "Boston",
    "Public": "Yes",
    "Total docks": 16,
    "Deployment Year": 2021
  },
  {
    "Number": "B32036",
    "Name": "One Brigham Circle",
    "Latitude": 42.3339227,
    "Longitude": -71.10446509,
    "District": "Boston",
    "Public": "Yes",
    "Total docks": 15,
    "Deployment Year": 2018
  },
  {
    "Number": "M32003",
    "Name": "One Broadway / Kendall Sq at Main St / 3rd St",
    "Latitude": 42.36224179,
    "Longitude": -71.08311072,
    "District": "Cambridge",
    "Public": "Yes",
    "Total docks": 23,
    "Deployment Year": 2012
  },
  {
    "Number": "M32002",
    "Name": "One Kendall Square at Hampshire St / Portland St",
    "Latitude": 42.366277,
    "Longitude": -71.09169,
    "District": "Cambridge",
    "Public": "Yes",
    "Total docks": 19,
    "Deployment Year": 2012
  },
  {
    "Number": "M32053",
    "Name": "One Memorial Drive",
    "Latitude": 42.36161932,
    "Longitude": -71.08043551,
    "District": "Cambridge",
    "Public": "Yes",
    "Total docks": 19,
    "Deployment Year": 2017
  },
  {
    "Number": "A32035",
    "Name": "Orient Heights T Stop - Bennington St at Saratoga St",
    "Latitude": 42.386781,
    "Longitude": -71.006098,
    "District": "Boston",
    "Public": "Yes",
    "Total docks": 19,
    "Deployment Year": 2016
  },
  {
    "Number": "R32002",
    "Name": "Orr Sq (Shirley Ave)",
    "Latitude": 42.40715656,
    "Longitude": -70.9927243,
    "District": "Revere",
    "Public": "Yes",
    "Total docks": 11,
    "Deployment Year": 2021
  },
  {
    "Number": "S32009",
    "Name": "Packard Ave at Powderhouse Blvd",
    "Latitude": 42.40449,
    "Longitude": -71.123413,
    "District": "Somerville",
    "Public": "Yes",
    "Total docks": 15,
    "Deployment Year": 2013
  },
  {
    "Number": "A32012",
    "Name": "Packard's Corner - Commonwealth Ave at Brighton Ave",
    "Latitude": 42.352261,
    "Longitude": -71.123831,
    "District": "Boston",
    "Public": "Yes",
    "Total docks": 27,
    "Deployment Year": 2011
  },
  {
    "Number": "A32008",
    "Name": "Park Dr at Buswell St",
    "Latitude": 42.347241,
    "Longitude": -71.105301,
    "District": "Boston",
    "Public": "Yes",
    "Total docks": 15,
    "Deployment Year": 2012
  },
  {
    "Number": "D32042",
    "Name": "Park Plaza at Charles St S.",
    "Latitude": 42.35182807,
    "Longitude": -71.06781138,
    "District": "Boston",
    "Public": "Yes",
    "Total docks": 19,
    "Deployment Year": 2018
  },
  {
    "Number": "C32039",
    "Name": "Park St at Norwell St",
    "Latitude": 42.29442579,
    "Longitude": -71.07821761,
    "District": "Boston",
    "Public": "Yes",
    "Total docks": 15,
    "Deployment Year": 2018
  },
  {
    "Number": "S32034",
    "Name": "Perry Park",
    "Latitude": 42.37927325,
    "Longitude": -71.10341903,
    "District": "Somerville",
    "Public": "Yes",
    "Total docks": 19,
    "Deployment Year": 2018
  },
  {
    "Number": "C32107",
    "Name": "Pier 4 Blvd at Autumn Ln",
    "Latitude": 42.3502102,
    "Longitude": -71.0446705,
    "District": "Boston",
    "Public": "Yes",
    "Total docks": 19,
    "Deployment Year": 2022
  },
  {
    "Number": "A32029",
    "Name": "Piers Park",
    "Latitude": 42.3650112,
    "Longitude": -71.03528559,
    "District": "Boston",
    "Public": "Yes",
    "Total docks": 15,
    "Deployment Year": 2016
  },
  {
    "Number": "M32029",
    "Name": "Porter Square Station",
    "Latitude": 42.387995,
    "Longitude": -71.119084,
    "District": "Cambridge",
    "Public": "Yes",
    "Total docks": 19,
    "Deployment Year": 2013
  },
  {
    "Number": "A32050",
    "Name": "Porzio Park",
    "Latitude": 42.36411904,
    "Longitude": -71.02876782,
    "District": "Boston",
    "Public": "Yes",
    "Total docks": 17,
    "Deployment Year": 2020
  },
  {
    "Number": "D32012",
    "Name": "Post Office Square",
    "Latitude": 42.35585436,
    "Longitude": -71.05459746,
    "District": "Boston",
    "Public": "Yes",
    "Total docks": 19,
    "Deployment Year": 2011
  },
  {
    "Number": "S32008",
    "Name": "Powder House Circle - Nathan Tufts Park",
    "Latitude": 42.400877,
    "Longitude": -71.116772,
    "District": "Somerville",
    "Public": "Yes",
    "Total docks": 13,
    "Deployment Year": 2012
  },
  {
    "Number": "C32007",
    "Name": "Prudential Center - 101 Huntington Ave",
    "Latitude": 42.34652004,
    "Longitude": -71.08065777,
    "District": "Boston",
    "Public": "Yes",
    "Total docks": 18,
    "Deployment Year": 2011
  },
  {
    "Number": "A32026",
    "Name": "Purchase St at Pearl St",
    "Latitude": 42.354659,
    "Longitude": -71.053181,
    "District": "Boston",
    "Public": "Yes",
    "Total docks": 19,
    "Deployment Year": 2016
  },
  {
    "Number": "L32001",
    "Name": "Railroad Lot and Minuteman Bikeway",
    "Latitude": 42.41606457,
    "Longitude": -71.15336637,
    "District": "Arlington",
    "Public": "Yes",
    "Total docks": 11,
    "Deployment Year": 2020
  },
  {
    "Number": "M32079",
    "Name": "Raymond Park at Walden St",
    "Latitude": 42.38736954,
    "Longitude": -71.12761001,
    "District": "Cambridge",
    "Public": "Yes",
    "Total docks": 19,
    "Deployment Year": 2022
  },
  {
    "Number": "R32006",
    "Name": "Revere City Hall",
    "Latitude": 42.40741,
    "Longitude": -71.0139,
    "District": "Revere",
    "Public": "Yes",
    "Total docks": 11,
    "Deployment Year": 2020
  },
  {
    "Number": "R32007",
    "Name": "Revere Public Library",
    "Latitude": 42.408088,
    "Longitude": -71.008942,
    "District": "Revere",
    "Public": "Yes",
    "Total docks": 11,
    "Deployment Year": 2020
  },
  {
    "Number": "M32036",
    "Name": "Rindge Avenue - O'Neill Library",
    "Latitude": 42.392766,
    "Longitude": -71.129042,
    "District": "Cambridge",
    "Public": "Yes",
    "Total docks": 19,
    "Deployment Year": 2014
  },
  {
    "Number": "C32058",
    "Name": "Ring Rd",
    "Latitude": 42.34827839,
    "Longitude": -71.08044855,
    "District": "Boston",
    "Public": "Yes",
    "Total docks": 3,
    "Deployment Year": 2018
  },
  {
    "Number": "A32056",
    "Name": "Riverway at Brookline Ave",
    "Latitude": 42.33661006,
    "Longitude": -71.1100468,
    "District": "Boston",
    "Public": "Yes",
    "Total docks": 25,
    "Deployment Year": 2023
  },
  {
    "Number": "M32035",
    "Name": "Rogers St & Land Blvd",
    "Latitude": 42.36644674,
    "Longitude": -71.07654601,
    "District": "Cambridge",
    "Public": "Yes",
    "Total docks": 19,
    "Deployment Year": 2018
  },
  {
    "Number": "C32097",
    "Name": "Roseland St At Dorchester Ave",
    "Latitude": 42.29116853,
    "Longitude": -71.0630089,
    "District": "Boston",
    "Public": "Yes",
    "Total docks": 12,
    "Deployment Year": 2021
  },
  {
    "Number": "C32047",
    "Name": "Roslindale Village - South St",
    "Latitude": 42.287072,
    "Longitude": -71.127754,
    "District": "Boston",
    "Public": "Yes",
    "Total docks": 15,
    "Deployment Year": 2018
  },
  {
    "Number": "C32046",
    "Name": "Roslindale Village - Washington St",
    "Latitude": 42.28630716,
    "Longitude": -71.12820532,
    "District": "Boston",
    "Public": "Yes",
    "Total docks": 15,
    "Deployment Year": 2018
  },
  {
    "Number": "E32014",
    "Name": "Ross Playground",
    "Latitude": 42.2645666,
    "Longitude": -71.1145523,
    "District": "Boston",
    "Public": "Yes",
    "Total docks": 19,
    "Deployment Year": 2022
  },
  {
    "Number": "D32008",
    "Name": "Rowes Wharf at Atlantic Ave",
    "Latitude": 42.357143,
    "Longitude": -71.050699,
    "District": "Boston",
    "Public": "Yes",
    "Total docks": 14,
    "Deployment Year": 2011
  },
  {
    "Number": "C32001",
    "Name": "Roxbury Crossing T Stop - Columbus Ave at Tremont St",
    "Latitude": 42.331184,
    "Longitude": -71.095171,
    "District": "Boston",
    "Public": "Yes",
    "Total docks": 23,
    "Deployment Year": 2011
  },
  {
    "Number": "B32022",
    "Name": "Roxbury YMCA - Warren St at MLK Blvd",
    "Latitude": 42.31787329,
    "Longitude": -71.08243078,
    "District": "Boston",
    "Public": "Yes",
    "Total docks": 10,
    "Deployment Year": 2016
  },
  {
    "Number": "B32002",
    "Name": "Ruggles T Stop - Columbus Ave at Melnea Cass Blvd",
    "Latitude": 42.33624445,
    "Longitude": -71.08798563,
    "District": "Boston",
    "Public": "Yes",
    "Total docks": 26,
    "Deployment Year": 2011
  },
  {
    "Number": "C32031",
    "Name": "Ryan Playground - Dorchester Ave at Harbor View St",
    "Latitude": 42.317642,
    "Longitude": -71.056664,
    "District": "Boston",
    "Public": "Yes",
    "Total docks": 15,
    "Deployment Year": 2015
  },
  {
    "Number": "E32007",
    "Name": "S Huntington Ave at Heath St",
    "Latitude": 42.32760387,
    "Longitude": -71.1108917,
    "District": "Boston",
    "Public": "Yes",
    "Total docks": 15,
    "Deployment Year": 2015
  },
  {
    "Number": "T32001",
    "Name": "Salem Ferry Landing",
    "Latitude": 42.52189284,
    "Longitude": -70.88069111,
    "District": "Salem",
    "Public": "Yes",
    "Total docks": 11,
    "Deployment Year": 2021
  },
  {
    "Number": "T32012",
    "Name": "Salem MBTA - Lower Level",
    "Latitude": 42.523994,
    "Longitude": -70.89684,
    "District": "Salem",
    "Public": "Yes",
    "Total docks": 11,
    "Deployment Year": 2022
  },
  {
    "Number": "T32005",
    "Name": "Salem MBTA - Washington at Federal St",
    "Latitude": 42.52345239,
    "Longitude": -70.89611113,
    "District": "Salem",
    "Public": "Yes",
    "Total docks": 13,
    "Deployment Year": 2021
  },
  {
    "Number": "T32007",
    "Name": "Salem State University - Bike Path at Loring Ave",
    "Latitude": 42.50182399,
    "Longitude": -70.89478076,
    "District": "Salem",
    "Public": "Yes",
    "Total docks": 15,
    "Deployment Year": 2021
  },
  {
    "Number": "T32009",
    "Name": "Salem State University - North Campus",
    "Latitude": 42.503332,
    "Longitude": -70.891444,
    "District": "Salem",
    "Public": "Yes",
    "Total docks": 11,
    "Deployment Year": 2022
  },
  {
    "Number": "T32002",
    "Name": "Salem Willows Park",
    "Latitude": 42.53466911,
    "Longitude": -70.8702144,
    "District": "Salem",
    "Public": "Yes",
    "Total docks": 15,
    "Deployment Year": 2021
  },
  {
    "Number": "C32033",
    "Name": "Savin Hill T Stop - S Sydney St at Bay St",
    "Latitude": 42.3106,
    "Longitude": -71.0539,
    "District": "Boston",
    "Public": "Yes",
    "Total docks": 14,
    "Deployment Year": 2016
  },
  {
    "Number": "C32036",
    "Name": "Seaport Blvd at Sleeper St",
    "Latitude": 42.35317809,
    "Longitude": -71.04817357,
    "District": "Boston",
    "Public": "Yes",
    "Total docks": 15,
    "Deployment Year": 2017
  },
  {
    "Number": "B32014",
    "Name": "Seaport Hotel - Congress St at Seaport Ln",
    "Latitude": 42.34881026,
    "Longitude": -71.04167744,
    "District": "Boston",
    "Public": "Yes",
    "Total docks": 19,
    "Deployment Year": 2011
  },
  {
    "Number": "B32007",
    "Name": "Seaport Square - Seaport Blvd at Northern Ave",
    "Latitude": 42.35148193,
    "Longitude": -71.04436085,
    "District": "Boston",
    "Public": "Yes",
    "Total docks": 23,
    "Deployment Year": 2011
  },
  {
    "Number": "M32063",
    "Name": "Sennott Park Broadway at Norfolk Street",
    "Latitude": 42.36860524,
    "Longitude": -71.09930186,
    "District": "Cambridge",
    "Public": "Yes",
    "Total docks": 19,
    "Deployment Year": 2019
  },
  {
    "Number": "D32059",
    "Name": "Shawmut Ave at Lenox St",
    "Latitude": 42.33584613,
    "Longitude": -71.08038157,
    "District": "Boston",
    "Public": "Yes",
    "Total docks": 19,
    "Deployment Year": 2022
  },
  {
    "Number": "D32048",
    "Name": "Shawmut Ave at Oak St W",
    "Latitude": 42.34854543,
    "Longitude": -71.06559185,
    "District": "Boston",
    "Public": "Yes",
    "Total docks": 15,
    "Deployment Year": 2019
  },
  {
    "Number": "E32009",
    "Name": "Shawmut T Stop",
    "Latitude": 42.292917,
    "Longitude": -71.06575,
    "District": "Boston",
    "Public": "Yes",
    "Total docks": 19,
    "Deployment Year": 2019
  },
  {
    "Number": "T32003",
    "Name": "Shetland Park - Congress at Peabody St",
    "Latitude": 42.51836788,
    "Longitude": -70.88952363,
    "District": "Salem",
    "Public": "Yes",
    "Total docks": 11,
    "Deployment Year": 2021
  },
  {
    "Number": "M32047",
    "Name": "Sidney Research Campus/Erie Street at Waverly",
    "Latitude": 42.35775309,
    "Longitude": -71.10393405,
    "District": "Cambridge",
    "Public": "Yes",
    "Total docks": 19,
    "Deployment Year": 2016
  },
  {
    "Number": "D32032",
    "Name": "Silber Way",
    "Latitude": 42.349496,
    "Longitude": -71.10057592,
    "District": "Boston",
    "Public": "Yes",
    "Total docks": 19,
    "Deployment Year": 2017
  },
  {
    "Number": "M32069",
    "Name": "Smith Pl at Wilson Rd",
    "Latitude": 42.39239749,
    "Longitude": -71.15058332,
    "District": "Cambridge",
    "Public": "Yes",
    "Total docks": 19,
    "Deployment Year": 2020
  },
  {
    "Number": "A32006",
    "Name": "Soldiers Field Park - 111 Western Ave",
    "Latitude": 42.36426344,
    "Longitude": -71.1182757,
    "District": "Boston",
    "Public": "Yes",
    "Total docks": 15,
    "Deployment Year": 2011
  },
  {
    "Number": "S32001",
    "Name": "Somerville City Hall",
    "Latitude": 42.386844,
    "Longitude": -71.09812,
    "District": "Somerville",
    "Public": "Yes",
    "Total docks": 19,
    "Deployment Year": 2012
  },
  {
    "Number": "S32036",
    "Name": "Somerville City Hall Annex",
    "Latitude": 42.39189812,
    "Longitude": -71.09745376,
    "District": "Somerville",
    "Public": "Yes",
    "Total docks": 19,
    "Deployment Year": 2019
  },
  {
    "Number": "S32048",
    "Name": "Somerville High School & Central Library",
    "Latitude": 42.3864,
    "Longitude": -71.09601,
    "District": "Somerville",
    "Public": "Yes",
    "Total docks": 17,
    "Deployment Year": 2021
  },
  {
    "Number": "S32020",
    "Name": "Somerville Hospital",
    "Latitude": 42.39044622,
    "Longitude": -71.10856622,
    "District": "Somerville",
    "Public": "Yes",
    "Total docks": 15,
    "Deployment Year": 2018
  },
  {
    "Number": "C32017",
    "Name": "South Boston Library - 646 E Broadway",
    "Latitude": 42.335741,
    "Longitude": -71.03877,
    "District": "Boston",
    "Public": "Yes",
    "Total docks": 15,
    "Deployment Year": 2013
  },
  {
    "Number": "A32009",
    "Name": "South End Library - Tremont St at W Newton St",
    "Latitude": 42.341332,
    "Longitude": -71.076847,
    "District": "Boston",
    "Public": "Yes",
    "Total docks": 15,
    "Deployment Year": 2011
  },
  {
    "Number": "A32010",
    "Name": "South Station - 700 Atlantic Ave",
    "Latitude": 42.352175,
    "Longitude": -71.055547,
    "District": "Boston",
    "Public": "Yes",
    "Total docks": 43,
    "Deployment Year": 2011
  },
  {
    "Number": "D32023",
    "Name": "Spaulding Rehabilitation Hospital - Charlestown Navy Yard",
    "Latitude": 42.378338,
    "Longitude": -71.048927,
    "District": "Boston",
    "Public": "Yes",
    "Total docks": 19,
    "Deployment Year": 2012
  },
  {
    "Number": "C32087",
    "Name": "Spring St at Powell St",
    "Latitude": 42.27748444,
    "Longitude": -71.16341468,
    "District": "Boston",
    "Public": "Yes",
    "Total docks": 19,
    "Deployment Year": 2019
  },
  {
    "Number": "K32007",
    "Name": "St Mary's",
    "Latitude": 42.34619708,
    "Longitude": -71.10728681,
    "District": "Brookline",
    "Public": "Yes",
    "Total docks": 15,
    "Deployment Year": 2018
  },
  {
    "Number": "B32063",
    "Name": "St. Alphonsus St at Tremont St",
    "Latitude": 42.33329255,
    "Longitude": -71.10124648,
    "District": "Boston",
    "Public": "Yes",
    "Total docks": 17,
    "Deployment Year": 2022
  },
  {
    "Number": "C32024",
    "Name": "State Street at Channel Center",
    "Latitude": 42.344137,
    "Longitude": -71.052608,
    "District": "Boston",
    "Public": "Yes",
    "Total docks": 19,
    "Deployment Year": 2014
  },
  {
    "Number": "D32041",
    "Name": "Stony Brook T Stop",
    "Latitude": 42.316966,
    "Longitude": -71.104374,
    "District": "Boston",
    "Public": "Yes",
    "Total docks": 19,
    "Deployment Year": 2018
  },
  {
    "Number": "D32049",
    "Name": "Stuart St at Berkeley St",
    "Latitude": 42.34954403,
    "Longitude": -71.07242074,
    "District": "Boston",
    "Public": "Yes",
    "Total docks": 17,
    "Deployment Year": 2019
  },
  {
    "Number": "D32011",
    "Name": "Stuart St at Charles St",
    "Latitude": 42.351146,
    "Longitude": -71.066289,
    "District": "Boston",
    "Public": "Yes",
    "Total docks": 14,
    "Deployment Year": 2011
  },
  {
    "Number": "D32053",
    "Name": "Sullivan Square",
    "Latitude": 42.38445226,
    "Longitude": -71.07514855,
    "District": "Boston",
    "Public": "Yes",
    "Total docks": 19,
    "Deployment Year": 2019
  },
  {
    "Number": "R32001",
    "Name": "Sumner St at Shirley Ave",
    "Latitude": 42.40833706,
    "Longitude": -70.99804848,
    "District": "Revere",
    "Public": "Yes",
    "Total docks": 11,
    "Deployment Year": 2021
  },
  {
    "Number": "A32013",
    "Name": "Surface Rd at India St",
    "Latitude": 42.358155,
    "Longitude": -71.052163,
    "District": "Boston",
    "Public": "Yes",
    "Total docks": 19,
    "Deployment Year": 2015
  },
  {
    "Number": "A32042",
    "Name": "Surface Rd at Summer St",
    "Latitude": 42.3529457,
    "Longitude": -71.05656401,
    "District": "Boston",
    "Public": "Yes",
    "Total docks": 26,
    "Deployment Year": 2019
  },
  {
    "Number": "V32007",
    "Name": "Swan St. Park",
    "Latitude": 42.41250451,
    "Longitude": -71.05842225,
    "District": "Everett",
    "Public": "Yes",
    "Total docks": 15,
    "Deployment Year": 2019
  },
  {
    "Number": "C32064",
    "Name": "Sydney St at Carson St",
    "Latitude": 42.32039374,
    "Longitude": -71.05355408,
    "District": "Boston",
    "Public": "Yes",
    "Total docks": 19,
    "Deployment Year": 2019
  },
  {
    "Number": "C32043",
    "Name": "Talbot Ave At Blue Hill Ave",
    "Latitude": 42.2945833,
    "Longitude": -71.087111,
    "District": "Boston",
    "Public": "Yes",
    "Total docks": 15,
    "Deployment Year": 2018
  },
  {
    "Number": "K32008",
    "Name": "Tappan St at Brookline Hills MBTA",
    "Latitude": 42.33137017,
    "Longitude": -71.12688361,
    "District": "Brookline",
    "Public": "Yes",
    "Total docks": 15,
    "Deployment Year": 2018
  },
  {
    "Number": "S32011",
    "Name": "Teele Square",
    "Latitude": 42.4008795,
    "Longitude": -71.12590793,
    "District": "Somerville",
    "Public": "Yes",
    "Total docks": 15,
    "Deployment Year": 2013
  },
  {
    "Number": "E32011",
    "Name": "The Dimock Center",
    "Latitude": 42.31930943,
    "Longitude": -71.09639924,
    "District": "Boston",
    "Public": "Yes",
    "Total docks": 16,
    "Deployment Year": 2019
  },
  {
    "Number": "A32033",
    "Name": "The Eddy - New St at Sumner St",
    "Latitude": 42.370744,
    "Longitude": -71.044201,
    "District": "Boston",
    "Public": "Yes",
    "Total docks": 15,
    "Deployment Year": 2016
  },
  {
    "Number": "C32028",
    "Name": "The Lawn on D",
    "Latitude": 42.344792,
    "Longitude": -71.044024,
    "District": "Boston",
    "Public": "Yes",
    "Total docks": 18,
    "Deployment Year": 2015
  },
  {
    "Number": "D32054",
    "Name": "The Overlook at St. Gabriel's",
    "Latitude": 42.34679008,
    "Longitude": -71.14549814,
    "District": "Boston",
    "Public": "Yes",
    "Total docks": 18,
    "Deployment Year": 2020
  },
  {
    "Number": "C32049",
    "Name": "Thetford Ave at Norfolk St",
    "Latitude": 42.28621295,
    "Longitude": -71.07942931,
    "District": "Boston",
    "Public": "Yes",
    "Total docks": 15,
    "Deployment Year": 2018
  },
  {
    "Number": "M32048",
    "Name": "Third at Binney",
    "Latitude": 42.36544486,
    "Longitude": -71.08277142,
    "District": "Cambridge",
    "Public": "Yes",
    "Total docks": 15,
    "Deployment Year": 2016
  },
  {
    "Number": "L32005",
    "Name": "Thorndike Field at Minuteman Bikeway",
    "Latitude": 42.40016805,
    "Longitude": -71.14456963,
    "District": "Arlington",
    "Public": "Yes",
    "Total docks": 11,
    "Deployment Year": 2020
  },
  {
    "Number": "C32000",
    "Name": "Tremont St at E Berkeley St",
    "Latitude": 42.345392,
    "Longitude": -71.069616,
    "District": "Boston",
    "Public": "Yes",
    "Total docks": 19,
    "Deployment Year": 2011
  },
  {
    "Number": "B32056",
    "Name": "Tremont St at Hamilton Pl",
    "Latitude": 42.35668335,
    "Longitude": -71.06166646,
    "District": "Boston",
    "Public": "Yes",
    "Total docks": 19,
    "Deployment Year": 2018
  },
  {
    "Number": "C32056",
    "Name": "Tremont St at Northampton St",
    "Latitude": 42.3384318,
    "Longitude": -71.0816905,
    "District": "Boston",
    "Public": "Yes",
    "Total docks": 19,
    "Deployment Year": 2018
  },
  {
    "Number": "C32060",
    "Name": "Tremont St at W. Dedham St",
    "Latitude": 42.34254914,
    "Longitude": -71.07421449,
    "District": "Boston",
    "Public": "Yes",
    "Total docks": 15,
    "Deployment Year": 2019
  },
  {
    "Number": "D32014",
    "Name": "Tremont St at West St",
    "Latitude": 42.354979,
    "Longitude": -71.063348,
    "District": "Boston",
    "Public": "Yes",
    "Total docks": 15,
    "Deployment Year": 2011
  },
  {
    "Number": "C32035",
    "Name": "Troy Boston",
    "Latitude": 42.343749,
    "Longitude": -71.062256,
    "District": "Boston",
    "Public": "Yes",
    "Total docks": 12,
    "Deployment Year": 2017
  },
  {
    "Number": "F32003",
    "Name": "Tufts Sq - Main St at Medford St",
    "Latitude": 42.401697,
    "Longitude": -71.106128,
    "District": "Medford",
    "Public": "Yes",
    "Total docks": 11,
    "Deployment Year": 2022
  },
  {
    "Number": "A32001",
    "Name": "Union Square - Brighton Ave at Cambridge St",
    "Latitude": 42.353334,
    "Longitude": -71.137313,
    "District": "Boston",
    "Public": "Yes",
    "Total docks": 19,
    "Deployment Year": 2011
  },
  {
    "Number": "S32002",
    "Name": "Union Square - Somerville",
    "Latitude": 42.3796479,
    "Longitude": -71.09540476,
    "District": "Somerville",
    "Public": "Yes",
    "Total docks": 19,
    "Deployment Year": 2012
  },
  {
    "Number": "S32041",
    "Name": "Union Square East",
    "Latitude": 42.380078,
    "Longitude": -71.090098,
    "District": "Somerville",
    "Public": "Yes",
    "Total docks": 19,
    "Deployment Year": 2021
  },
  {
    "Number": "C32014",
    "Name": "University of Massachusetts Boston - Campus Center",
    "Latitude": 42.31218918,
    "Longitude": -71.03648586,
    "District": "Boston",
    "Public": "Yes",
    "Total docks": 19,
    "Deployment Year": 2012
  },
  {
    "Number": "M32040",
    "Name": "University Park",
    "Latitude": 42.36264779,
    "Longitude": -71.10006094,
    "District": "Cambridge",
    "Public": "Yes",
    "Total docks": 19,
    "Deployment Year": 2015
  },
  {
    "Number": "C32019",
    "Name": "Uphams Corner",
    "Latitude": 42.31727474,
    "Longitude": -71.06537004,
    "District": "Boston",
    "Public": "Yes",
    "Total docks": 15,
    "Deployment Year": 2013
  },
  {
    "Number": "B32025",
    "Name": "Uphams Corner T Stop - Magnolia St at Dudley St",
    "Latitude": 42.31869734,
    "Longitude": -71.06978148,
    "District": "Boston",
    "Public": "Yes",
    "Total docks": 15,
    "Deployment Year": 2016
  },
  {
    "Number": "A32053",
    "Name": "Valenti Way at Haverhill St",
    "Latitude": 42.36473899,
    "Longitude": -71.05934903,
    "District": "Boston",
    "Public": "Yes",
    "Total docks": 24,
    "Deployment Year": 2021
  },
  {
    "Number": "M32057",
    "Name": "Vassal Lane at Tobin/VLUS",
    "Latitude": 42.38536765,
    "Longitude": -71.13775671,
    "District": "Cambridge",
    "Public": "Yes",
    "Total docks": 19,
    "Deployment Year": 2018
  },
  {
    "Number": "M32050",
    "Name": "Verizon Innovation Hub 10 Ware Street",
    "Latitude": 42.37250865,
    "Longitude": -71.11305356,
    "District": "Cambridge",
    "Public": "Yes",
    "Total docks": 19,
    "Deployment Year": 2017
  },
  {
    "Number": "T32017",
    "Name": "Vinnin Square",
    "Latitude": 42.48628785,
    "Longitude": -70.90166733,
    "District": "Salem",
    "Public": "Yes",
    "Total docks": 11,
    "Deployment Year": 2023
  },
  {
    "Number": "C32029",
    "Name": "W Broadway at D St",
    "Latitude": 42.3391085,
    "Longitude": -71.0514432,
    "District": "Boston",
    "Public": "Yes",
    "Total docks": 23,
    "Deployment Year": 2015
  },
  {
    "Number": "C32016",
    "Name": "W Broadway at Dorchester St",
    "Latitude": 42.33595898,
    "Longitude": -71.046229,
    "District": "Boston",
    "Public": "Yes",
    "Total docks": 17,
    "Deployment Year": 2013
  },
  {
    "Number": "C32102",
    "Name": "Walnut Ave at School St",
    "Latitude": 42.31242399,
    "Longitude": -71.09616905,
    "District": "Boston",
    "Public": "Yes",
    "Total docks": 19,
    "Deployment Year": 2021
  },
  {
    "Number": "B32030",
    "Name": "Walnut Ave at Warren St",
    "Latitude": 42.324081,
    "Longitude": -71.083235,
    "District": "Boston",
    "Public": "Yes",
    "Total docks": 15,
    "Deployment Year": 2016
  },
  {
    "Number": "D32021",
    "Name": "Warren St at Chelsea St",
    "Latitude": 42.371848,
    "Longitude": -71.060292,
    "District": "Boston",
    "Public": "Yes",
    "Total docks": 23,
    "Deployment Year": 2012
  },
  {
    "Number": "V32010",
    "Name": "Wasgott Playground",
    "Latitude": 42.40933007,
    "Longitude": -71.06381878,
    "District": "Everett",
    "Public": "Yes",
    "Total docks": 15,
    "Deployment Year": 2019
  },
  {
    "Number": "K32011",
    "Name": "Washington Sq",
    "Latitude": 42.33985827,
    "Longitude": -71.13421171,
    "District": "Brookline",
    "Public": "Yes",
    "Total docks": 15,
    "Deployment Year": 2020
  },
  {
    "Number": "C32042",
    "Name": "Washington St at Bowdoin St",
    "Latitude": 42.29916498,
    "Longitude": -71.07345872,
    "District": "Boston",
    "Public": "Yes",
    "Total docks": 15,
    "Deployment Year": 2018
  },
  {
    "Number": "D32029",
    "Name": "Washington St at Brock St",
    "Latitude": 42.34895285,
    "Longitude": -71.16031677,
    "District": "Boston",
    "Public": "Yes",
    "Total docks": 15,
    "Deployment Year": 2015
  },
  {
    "Number": "N32001",
    "Name": "Washington St at Crafts St",
    "Latitude": 42.35389024,
    "Longitude": -71.19943707,
    "District": "Newton",
    "Public": "Yes",
    "Total docks": 11,
    "Deployment Year": 2020
  },
  {
    "Number": "C32081",
    "Name": "Washington St at Denton Terr",
    "Latitude": 42.28072815,
    "Longitude": -71.13423757,
    "District": "Boston",
    "Public": "Yes",
    "Total docks": 19,
    "Deployment Year": 2019
  },
  {
    "Number": "A32037",
    "Name": "Washington St at Egremont Rd",
    "Latitude": 42.34286835,
    "Longitude": -71.14127841,
    "District": "Boston",
    "Public": "Yes",
    "Total docks": 15,
    "Deployment Year": 2018
  },
  {
    "Number": "C32084",
    "Name": "Washington St at Fuller St",
    "Latitude": 42.28198628,
    "Longitude": -71.07147925,
    "District": "Boston",
    "Public": "Yes",
    "Total docks": 15,
    "Deployment Year": 2019
  },
  {
    "Number": "C32005",
    "Name": "Washington St at Lenox St",
    "Latitude": 42.33509899,
    "Longitude": -71.07903779,
    "District": "Boston",
    "Public": "Yes",
    "Total docks": 15,
    "Deployment Year": 2011
  },
  {
    "Number": "B32026",
    "Name": "Washington St at Melnea Cass Blvd",
    "Latitude": 42.332817,
    "Longitude": -71.081198,
    "District": "Boston",
    "Public": "Yes",
    "Total docks": 19,
    "Deployment Year": 2016
  },
  {
    "Number": "S32021",
    "Name": "Washington St at Myrtle St",
    "Latitude": 42.3817508,
    "Longitude": -71.0839523,
    "District": "Somerville",
    "Public": "Yes",
    "Total docks": 15,
    "Deployment Year": 2018
  },
  {
    "Number": "C32067",
    "Name": "Washington St at Peters Park",
    "Latitude": 42.3438524,
    "Longitude": -71.06764555,
    "District": "Boston",
    "Public": "Yes",
    "Total docks": 19,
    "Deployment Year": 2019
  },
  {
    "Number": "C32006",
    "Name": "Washington St at Rutland St",
    "Latitude": 42.3385146,
    "Longitude": -71.07404083,
    "District": "Boston",
    "Public": "Yes",
    "Total docks": 27,
    "Deployment Year": 2011
  },
  {
    "Number": "C32038",
    "Name": "Washington St at Talbot Ave",
    "Latitude": 42.290333,
    "Longitude": -71.071806,
    "District": "Boston",
    "Public": "Yes",
    "Total docks": 17,
    "Deployment Year": 2018
  },
  {
    "Number": "N32014",
    "Name": "Washington St at Walnut St",
    "Latitude": 42.35145812,
    "Longitude": -71.20764971,
    "District": "Newton",
    "Public": "Yes",
    "Total docks": 11,
    "Deployment Year": 2021
  },
  {
    "Number": "C32083",
    "Name": "Washington St at Walsh Playground",
    "Latitude": 42.2771947,
    "Longitude": -71.06955614,
    "District": "Boston",
    "Public": "Yes",
    "Total docks": 19,
    "Deployment Year": 2019
  },
  {
    "Number": "D32002",
    "Name": "Washington St at Waltham St",
    "Latitude": 42.34157472,
    "Longitude": -71.0689044,
    "District": "Boston",
    "Public": "Yes",
    "Total docks": 15,
    "Deployment Year": 2011
  },
  {
    "Number": "C32034",
    "Name": "Watermark Seaport - Boston Wharf Rd at Seaport Blvd",
    "Latitude": 42.351586,
    "Longitude": -71.04569256,
    "District": "Boston",
    "Public": "Yes",
    "Total docks": 15,
    "Deployment Year": 2016
  },
  {
    "Number": "W32002",
    "Name": "Watertown Sq",
    "Latitude": 42.36526032,
    "Longitude": -71.18573324,
    "District": "Watertown",
    "Public": "Yes",
    "Total docks": 15,
    "Deployment Year": 2020
  },
  {
    "Number": "N32006",
    "Name": "Watertown St at Albemarle Rd",
    "Latitude": 42.35410408,
    "Longitude": -71.21382214,
    "District": "Newton",
    "Public": "Yes",
    "Total docks": 11,
    "Deployment Year": 2022
  },
  {
    "Number": "W32005",
    "Name": "Watertown Town Hall",
    "Latitude": 42.36759308,
    "Longitude": -71.18751436,
    "District": "Watertown",
    "Public": "Yes",
    "Total docks": 11,
    "Deployment Year": 2020
  },
  {
    "Number": "V32014",
    "Name": "Wellington MBTA",
    "Latitude": 42.4023682,
    "Longitude": -71.07573182,
    "District": "Everett",
    "Public": "Yes",
    "Total docks": 19,
    "Deployment Year": 2022
  },
  {
    "Number": "B32021",
    "Name": "Wentworth Institute of Technology - Huntington Ave at Vancouver St",
    "Latitude": 42.33758601,
    "Longitude": -71.09627098,
    "District": "Boston",
    "Public": "Yes",
    "Total docks": 13,
    "Deployment Year": 2015
  },
  {
    "Number": "D32022",
    "Name": "West End Park",
    "Latitude": 42.36590788,
    "Longitude": -71.06446669,
    "District": "Boston",
    "Public": "Yes",
    "Total docks": 35,
    "Deployment Year": 2012
  },
  {
    "Number": "N32005",
    "Name": "West Newton",
    "Latitude": 42.3496005,
    "Longitude": -71.22627497,
    "District": "Newton",
    "Public": "Yes",
    "Total docks": 12,
    "Deployment Year": 2020
  },
  {
    "Number": "A32043",
    "Name": "Western Ave at Richardson St",
    "Latitude": 42.36178741,
    "Longitude": -71.14393111,
    "District": "Boston",
    "Public": "Yes",
    "Total docks": 19,
    "Deployment Year": 2019
  },
  {
    "Number": "B32059",
    "Name": "Whittier St Health Center",
    "Latitude": 42.33286288,
    "Longitude": -71.09218862,
    "District": "Boston",
    "Public": "Yes",
    "Total docks": 19,
    "Deployment Year": 2019
  },
  {
    "Number": "D32040",
    "Name": "Williams St at Washington St",
    "Latitude": 42.306539,
    "Longitude": -71.107669,
    "District": "Boston",
    "Public": "Yes",
    "Total docks": 23,
    "Deployment Year": 2018
  },
  {
    "Number": "S32005",
    "Name": "Wilson Square",
    "Latitude": 42.38567579,
    "Longitude": -71.11412136,
    "District": "Somerville",
    "Public": "Yes",
    "Total docks": 15,
    "Deployment Year": 2012
  }
]